No,Destination Name,Address,Subdistrict,Regency,Latitude,Longitude,Category 1,Category 2 ,Category 3,Rating,Google Reviews (Count),Source,Child Entry,Adults Entry,Normal Hotel Price
1,Tanah Lot,"Beraban, Kec. Kediri, Kabupaten Tabanan, Bali 82121",Kediri,Tabanan,-8.6212,115.0868,Historical Landmark,Temple,Tourist Destination,4.6,75899,"https://www.google.com/maps/place/Tanah+Lot/@-8.6212118,115.0846145,17z/data=!4m5!3m4!1s0x2dd237824f71deab:0xcaabe270f7e34d69!8m2!3d-8.621213!4d115.086807","Rp30,000","Rp60,000",
2,Mount Batur,"Bangli, Bali, Indonesia",Kintamani,Bangli,-8.2389,115.3775,Mountain,Lake,Tourist Destination,4.5,2580,"https://www.google.com/maps/place/Mt+Batur/@-8.2401298,115.3774944,14z/data=!3m1!4b1!4m5!3m4!1s0x2dd1f403c8e8ee3f:0xd38045afa18670b4!8m2!3d-8.2401299!4d115.3774944",,,
3,Uluwatu Temple,"Uluwatu (South Kuta, Badung)",Kuta,Badung,-8.8291,115.0849,Temple,Historical Landmark,Tourist Destination,4.6,28800,"https://www.google.com/maps/place/Uluwatu+Temple/@-8.8293567,115.0851721,17z/data=!3m1!4b1!4m5!3m4!1s0x2dd24ffc20cb8191:0xcb98d1ba7db0495!8m2!3d-8.8291432!4d115.0849069","Rp15,000","Rp30,000",
4,Ubud Monkey Forest,"Jl. Monkey Forest, Ubud, Kecamatan Ubud, Kabupaten Gianyar, Bali 80571",Ubud,Gianyar,-8.5194,115.2606,Wildlife,Forest,Tourist Destination,4.5,36099,"https://www.google.com/maps/place/Sacred+Monkey+Forest+Sanctuary/@-8.5193727,115.2606299,17z/data=!3m1!4b1!4m5!3m4!1s0x2dd23d43f6189b67:0xb6ec43164befc356!8m2!3d-8.5193727!4d115.2606299","Rp40,000","Rp50,000",
5,Goa Gajah,"Gianyar, Bali",Ubud,Gianyar,-8.5069,115.2625,Historical Landmark,Temple,Tourist Destination,4.2,6683,"https://www.google.com/maps/place/Goa+Gajah/@-8.5234022,115.2868531,17z/data=!3m1!4b1!4m5!3m4!1s0x2dd216319e3e8cbb:0xcf6f85fcf798a545!8m2!3d-8.5234378!4d115.2871568","Rp25,000","Rp50,000",
6,Jatiluwih Rice Terraces in Bali,"Village, Jl. Jatiluwih Kawan No.Desa, Jatiluwih, Kec. Penebel, Kabupaten Tabanan, Bali 82152",Penebel,Tabanan,-8.3686,115.1305,Rice Field,Countryside,Tourist Destination,4.7,7798,"https://www.google.com/maps/place/Jatiluwih+Rice+Terraces/@-8.37031,115.131372,17z/data=!3m1!4b1!4m5!3m4!1s0x2dd227ab020cd7fb:0x2f0f875ff3e6839a!8m2!3d-8.37031!4d115.131372","Rp40,000","Rp40,000",
7,Tenggalang Rice Terrace,"Jl. Raya Tegallalang, Tegallalang, Kec. Tegallalang, Kabupaten Gianyar, Bali 80561",Tegallalang,Gianyar,-8.4028,115.288,Rice Field,Countryside,Tourist Destination,4.4,33732,"https://www.google.com/maps/place/Tegallalang+Rice+Terrace/@-8.4340403,115.2792569,17z/data=!3m1!4b1!4m5!3m4!1s0x2dd2220b23f900e3:0x8d1a8969386c04ed!8m2!3d-8.4340403!4d115.2792569","Rp20,000","Rp20,000",
8,Pura Ulun Danu Bratan,"Danau Beratan, Candikuning, Kec. Baturiti, Kabupaten Tabanan, Bali 82191",Baturiti,Tabanan,-8.2753,115.1664,Historical Landmark,Temple,Tourist Destination,4.7,29178,"https://www.google.com/maps/place/Ulun+Danu+Beratan+Temple/@-8.2751807,115.1668234,17z/data=!3m1!4b1!4m5!3m4!1s0x2dd1896c9fac0857:0x18246568e4db1b53!8m2!3d-8.2751807!4d115.1668234","Rp25,000","Rp50,000",
9,Seminyak Beach,"Kuta, Badung, Bali",Kuta,Badung,-8.6913,115.1682,Beach,Beachside,Tourist Destination,4.5,3195,"https://www.google.com/maps/place/Seminyak+Beach/@-8.6899792,115.1562856,15z/data=!3m1!4b1!4m5!3m4!1s0x2dd2471c804bfd05:0xdcc2b5ae63dc9082!8m2!3d-8.6920123!4d115.1578837",,,
10,Nusa Dua Beach,"Kuta, Badung, Bali",Kuta,Badung,-8.7941,115.2302,Beach,Beachside,Tourist Destination,4.6,6171,"https://www.google.com/maps/place/Nusa+Dua+Beach/@-8.8004119,115.2360119,14z/data=!3m1!4b1!4m5!3m4!1s0x2dd242d6feba16fd:0x84a7328be1e50953!8m2!3d-8.8004121!4d115.2360119",,,
11,Besakih Temple (Pura Besakih),"Besakih countryside, Rendang sub district, Karangasem, Bali",Rendang,Karangasem,-8.3739,115.4522,Historical Landmark,Temple,Tourist Destination,4.5,9672,"https://www.google.com/maps/place/Besakih+Great+Temple/@-8.3738651,115.4522394,17z/data=!4m5!3m4!1s0x2dd21cbe3748b2b7:0xbfc39798cd1bb4a!8m2!3d-8.3738651!4d115.4522394","Rp30,000","Rp60,000",
12,Kuta Beach,"Kuta District, Badung, southern Bali",Kuta,Badung,-8.7185,115.1686,Beach,Beachside,Tourist Destination,4.5,37663,"https://www.google.com/maps/place/Kuta+Beach/@-8.7180325,115.1680346,15z/data=!3m1!4b1!4m5!3m4!1s0x2dd246bc2ab70d43:0x82feaae12f4ab48e!8m2!3d-8.7184926!4d115.1686322",,,
13,Pura Penataran Agung Lempuyang,"Jl. Pura Telaga Mas Lempuyang, Tri Buana, Kec. Abang, Kabupaten Karangasem, Bali 80852",Abang,Karangasem,-8.3915,115.6313,Historical Landmark,Temple,Tourist Destination,4.3,6192,"https://www.google.com/maps/place/Pura+Penataran+Agung+Lempuyang/@-8.3913794,115.6306937,17z/data=!3m1!4b1!4m5!3m4!1s0x2dd2071753222893:0x40a0fd58fe779263!8m2!3d-8.3913712!4d115.630697","Rp115,000","Rp115,000",
14,Sidemen Valley,Karangasem in East Bali,Karangasem,Karangasem,-8.4845,115.4447,Mountain,Rice Field,Tourist Destination,4.3,172,"https://www.google.com/maps/place/Bali+Countryside+Sidemen/@-8.505544,115.3557232,12z/data=!4m10!1m2!2m1!1ssidemen+valley!3m6!1s0x2dd210f87453e769:0x6c3a2008aef6f898!8m2!3d-8.505544!4d115.425761!15sCg5zaWRlbWVuIHZhbGxleZIBEnRvdXJpc3RfYXR0cmFjdGlvbuABAA!16s%2Fg%2F11bwkgmsh7",,,
15,Tirta Empul Temple,"Jl. Tirta, Manukaya, Kec. Tampaksiring, Kabupaten Gianyar, Bali 80552",Tampaksiring,Gianyar,-8.4147,115.3155,Spiritual Journey,Water Temple,Tourist Destination,4.6,16456,"https://www.google.com/maps/place/Pura+Tirta+Empul/@-8.4157038,115.3153042,17z/data=!3m1!4b1!4m5!3m4!1s0x2dd218f4e06131b5:0x53a25a017714ecc1!8m2!3d-8.4158511!4d115.3150247","Rp25,000","Rp50,000",
16,West Bali National Park,"Buleleng, Bali, Indonesia",Buleleng,Buleleng,-8.1333,114.4833,Wildlife,National Park,Tourist Destination,4.5,2912,"https://www.google.com/maps/place/West+Bali+National+Park/@-8.1276114,114.4731514,17z/data=!3m1!4b1!4m5!3m4!1s0x2dd143657d50a467:0xc6efbc99a654d0b2!8m2!3d-8.1276114!4d114.4753401","Rp300,000","Rp300,000",
17,Garuda Wisnu Kencana Cultural Park,"Uluwatu St, Ungasan, South Kuta, Badung, Bali 80364",Kuta,Badung,-8.8104,115.1676,Historical Landmark,National Park,Tourist Destination,4.5,50703,"https://www.google.com/maps/place/Garuda+Wisnu+Kencana+Cultural+Park/@-8.8104228,115.1675986,17z/data=!3m1!4b1!4m6!3m5!1s0x2dd244cf54e1dec7:0x1988663e064f5a51!8m2!3d-8.8104228!4d115.1675986!16zL20vMGRyenpx?authuser=0&hl=en","Rp100,000","Rp125,000",
18,Bali Zoo,"Jl. Raya Singapadu, Singapadu, Kec. Sukawati, Kabupaten Gianyar, Bali 80582",Sukawati,Gianyar,-8.5913,115.2659,Wildlife,Family-Friendly,Tourist Destination,4.4,14401,"https://www.google.com/maps/place/Bali+Zoo/@-8.5912638,115.2659161,17z/data=!3m1!4b1!4m6!3m5!1s0x2dd23e3e4361eea5:0x3bf4eb36bfd7c6be!8m2!3d-8.5912638!4d115.2659161!16s%2Fg%2F1tk_rlbg?authuser=0&hl=en","Rp90,000","Rp90,000",
19,Bali Bird Park,"Jl. Serma Cok Ngurah Gambir Singapadu, Batubulan, Kec. Sukawati, Kabupaten Gianyar, Bali 80582",Sukawati,Gianyar,-8.6,115.2511,Wildlife,Family-Friendly,Tourist Destination,4.6,9847,"https://www.google.com/maps/place/Bali+Bird+Park/@-8.59998,115.25185,17z/data=!3m1!4b1!4m6!3m5!1s0x2dd23e4efac54c0f:0x5f8920acf656382c!8m2!3d-8.59998!4d115.25185!16s%2Fm%2F0_fn070?authuser=0&hl=en","Rp192,500","Rp385,000",
20,Tirta Gangga,"Jalan Raya Abang Desa Adat, Ababi, Kec. Abang, Kabupaten Karangasem, Bali 80852",Abang,Karangasem,-8.4123,115.5873,Water Palace,Temple,Tourist Destination,4.6,12992,"https://www.google.com/maps/place/Tirta+Gangga/@-8.4123473,115.5872919,17z/data=!3m1!4b1!4m6!3m5!1s0x2dd24736f4379ad1:0x65af03b0d108a7d1!8m2!3d-8.4123473!4d115.5872919!16s%2Fm%2F09rv951?authuser=0&hl=en","Rp50,000","Rp50,000",
21,Tegenungan Waterfall,"Jl. Ir. Sutami, Kemenuh, Kec. Sukawati, Kabupaten Gianyar, Bali 80581",Sukawati,Gianyar,-8.5754,115.2888,Waterfall,Cliff,Tourist Destination,4.3,23349,"https://www.google.com/maps/place/Tegenungan+Waterfall/@-8.5753506,115.288777,17z/data=!3m1!4b1!4m6!3m5!1s0x2dd2161beebd0c61:0xc1ae79ddb8410c5e!8m2!3d-8.5753134!4d115.2887691!16s%2Fg%2F11bvx3j8m8?authuser=0&hl=en","Rp10,000","Rp15,000",
22,Bali Swing,"Jl. Dewi Saraswati No.7, Bongkasa Pertiwi, Kec. Abiansemal, Kabupaten Badung, Bali 80352",Abiansemal,Badung,-8.4936,115.2392,Rice Field,Countryside,Tourist Destination,4.5,8311,"https://www.google.com/maps/place/Bali+Swing/@-8.4886834,115.2392541,17z/data=!3m1!4b1!4m6!3m5!1s0x2dd23d2bb78f98e5:0xdc87cb5e74348952!8m2!3d-8.4886742!4d115.2392573!16s%2Fg%2F11dxl6hnl9?authuser=0&hl=en","Rp250,000","Rp250,000",
23,Waterboom Bali,"Jl. Kartika Plaza, Tuban, Kec. Kuta, Kabupaten Badung, Bali 80361",Kuta,Badung,-8.7286,115.1694,Water Activities,Family-Friendly,Tourist Destination,4.7,10650,"https://www.google.com/maps/place/Waterbom+Bali/@-8.7285745,115.1693743,17z/data=!3m1!4b1!4m6!3m5!1s0x2dd246a3ee8f82df:0x1291d693f3407fa5!8m2!3d-8.7285759!4d115.1693786!16s%2Fg%2F1tdz276n?authuser=0&hl=en","Rp355,000","Rp495,000",
24,Campuhan Ridge Walk,"Kelusa, Payangan, Jl. Raya Campuhan, Sayan, Kecamatan Ubud, Kabupaten Gianyar, Bali 80571",Ubud,Gianyar,-8.5036,115.2547,Hiking,Countryside,Tourist Destination,4.4,9019,"https://www.google.com/maps/place/Campuhan+Ridge+Walk/@-8.5036172,115.2547038,17z/data=!3m1!4b1!4m6!3m5!1s0x2dd23d6bcaf473f5:0x7c13fd74aa1bc49f!8m2!3d-8.5036172!4d115.2547038!16s%2Fg%2F11bv_dhkhx?authuser=0&hl=en",,,
25,Bali Safari and Marine Park,"Jl. Prof. Dr. Ida Bagus Mantra No.km 19, Serongga, Kec. Gianyar, Kabupaten Gianyar, Bali 80551",Gianyar,Gianyar,-8.5908,115.342,Wildlife,Family-Friendly,Tourist Destination,4.4,16042,"https://www.google.com/maps/place/Bali+Safari+and+Marine+Park/@-8.580947,115.3452337,17z/data=!3m1!4b1!4m6!3m5!1s0x2dd21446b81f7d39:0x34b39c786c2e54ec!8m2!3d-8.580947!4d115.3452337!16s%2Fm%2F0lkqtcl?authuser=0&hl=en","Rp576,000","Rp720,000",
26,Bajra Sandhi Monument,"Jl. Raya Puputan No.142, Panjer, Denpasar Selatan, Kota Denpasar, Bali 80234",Denpasar Selatan,Denpasar,-8.6717,115.2339,Historical Landmark,Museum,Tourist Destination,4.6,12694,"https://www.google.com/maps/place/Bajra+Sandhi+Monument/@-8.6717348,115.233902,17z/data=!3m1!4b1!4m6!3m5!1s0x2dd240f5b0baad2f:0xf67150ab4e009a2c!8m2!3d-8.6717348!4d115.233902!16s%2Fm%2F0n45qhz?authuser=0&hl=en","Rp15,000","Rp30,000",
27,Sukawati Art Market,"Jalan Raya Sukawati, Sukawati, Kec. Sukawati, Kabupaten Gianyar, Bali 80582",Sukawati,Gianyar,-8.5965,115.2826,Local Market,Countryside,Tourist Destination,4.3,8248,"https://www.google.com/maps/place/Sukawati+Art+Market/@-8.5965307,115.2826055,17z/data=!3m1!4b1!4m6!3m5!1s0x2dd23e28616c410d:0x960eaffe9f543e3c!8m2!3d-8.5965307!4d115.2826055!16s%2Fg%2F11gzm8537?authuser=0&hl=en",,,
28,Taman Ujung,"Ujung Water Palace, Tumbu, Kec. Karangasem, Kabupaten Karangasem, Bali 80811",Karangasem,Karangasem,-8.4631,115.6307,Water Palace,Countryside,Tourist Destination,4.6,3984,"https://www.google.com/maps/place/Taman+Ujung/@-8.4630811,115.6306692,17z/data=!3m1!4b1!4m6!3m5!1s0x2dd20876e3e79815:0xfc9ab3edaa5d11f2!8m2!3d-8.4630811!4d115.6306692!16s%2Fm%2F011l7bd6?authuser=0&hl=en","Rp75,000","Rp75,000",
29,Secret Garden Village,"Jl. Raya Denpasar Bedugul km. 36, Mekarsari, Baturiti, Mekarsari, Tabanan, Mekarsari, Kec. Baturiti, Kabupaten Tabanan, Bali 82191",Baturiti,Tabanan,-8.3727,115.1933,Countryside,Hands On Activities,Tourist Destination,4.6,4432,"https://www.google.com/maps/place/Secret+Garden+Village/@-8.3726762,115.1933301,17z/data=!3m1!4b1!4m9!3m8!1s0x2dd2212ba32a0087:0xabd3c3b7c8f647ef!5m2!4m1!1i2!8m2!3d-8.3726794!4d115.1933311!16s%2Fg%2F11cjhzdxpb?authuser=0&hl=en","Rp45,000","Rp45,000",
30,Penglipuran Village,"Jl. Penglipuran, Kubu, Kec. Bangli, Kabupaten Bangli, Bali 80611",Bangli,Bangli,-8.4219,115.3589,Traditional Villages,Countryside,Tourist Destination,4.8,13207,"https://www.google.com/maps/place/Penglipuran+Village/@-8.4222473,115.359306,17z/data=!3m1!4b1!4m6!3m5!1s0x2dd2196eace4f4a9:0x3319169adf0c3419!8m2!3d-8.4222473!4d115.359306!16s%2Fg%2F11g6htx9w5?authuser=0&hl=en","Rp50,000","Rp50,000",
31,Banjar Hot Spring,"Jalan Banjar, Banjar, Kec. Banjar, Kabupaten Buleleng, Bali 81152",Banjar,Buleleng,-8.2105,114.9671,Hostprings,Water Temple,Tourist Destination,4.3,2422,"https://www.google.com/maps/place/Banjar+Hot+Spring/@-8.210536,114.967053,17z/data=!3m1!4b1!4m6!3m5!1s0x2e6f62183e68d4d7:0xd6004ccdd7930d5e!8m2!3d-8.210536!4d114.967053!16s%2Fg%2F1q62gc8c0?authuser=0&hl=en","Rp20,000","Rp20,000",
32,Bali Pulina,"Jl. Raya Pujung Kaja, Sebatu, Kec. Tegallalang, Kabupaten Gianyar, Bali 80561",Tegallalang,Gianyar,-8.4227,115.2788,Coffee Plantation,Countryside,Tourist Destination,4.5,3960,"https://www.google.com/maps/place/Bali+Pulina/@-8.4227455,115.2788239,17z/data=!3m1!4b1!4m6!3m5!1s0x2dd222990001f90b:0x46117dc3c84b0af2!8m2!3d-8.4227455!4d115.2788239!16s%2Fg%2F11bc7r5jvk?authuser=0&hl=en","Rp100,000","Rp100,000",
33,Goa Lawah Temple,"CFX9+9GG, Jl. Raya Goa Lawah, Pesinggahan, Kec. Dawan, Kabupaten Klungkung, Bali 80761",Dawan,Klungkung,-8.5516,115.4688,Temple,Cave,Tourist Destination,4.7,4479,"https://www.google.com/maps/place/Goa+Lawah+Temple/@-8.5515731,115.4688279,17z/data=!3m1!4b1!4m6!3m5!1s0x2dd212002b27b8a9:0x64d9703162191aad!8m2!3d-8.5515375!4d115.468823!16s%2Fg%2F11g9swjzff?authuser=0&hl=en","Rp20,000","Rp20,000",
34,Pantai Batu Bolong,"Jl. Pantai Batu Bolong, Canggu, Kec. Kuta Utara, Kabupaten Badung, Bali",Kuta Utara,Badung,-8.6595,115.1301,Beach,Cave,Tourist Destination,4.4,7248,"https://www.google.com/maps/place/Pantai+Batu+Bolong/@-8.6594822,115.1301361,15z/data=!3m1!4b1!4m6!3m5!1s0x2dd2478621f5b693:0xa157bd1e893b4293!8m2!3d-8.6594824!4d115.1301361!16s%2Fg%2F1hc2cr7jt?authuser=0&hl=en","Rp10,000","Rp10,000",
35,The Anvaya Beach Resort Bali,"Jl. Kartika Plaza, Tuban, Kec. Kuta, Kabupaten Badung, Bali 80361, Indonesia",Kuta,Badung,-8.7322397,115.1659119,Stays,High End Hotel,Beachside Resort,4.7,10830,https://maps.google.com/?cid=1437900499782659408,,,"Rp5,022,000"
36,The Apurva Kempinski Bali,"Jl. Raya Nusa Dua Selatan lot 4, Benoa, Kec. Kuta Sel., Kabupaten Badung, Bali 80361, Indonesia",Kuta Selatan,Badung,-8.8285518,115.215578,Stays,Luxury Hotel,Beachside Resort,4.8,10117,https://maps.google.com/?cid=5218857665333554588,,,"Rp14,520,640"
37,"The Westin Resort Nusa Dua, Bali","Kawasan Pariwisata Nusa Dua, BTDC Lot N-3, Benoa, Kec. Kuta Sel., Nusa Dua, Bali 80363, Indonesia",Kuta Selatan,Badung,-8.795935,115.23051,Stays,Premium Hotel,Beachside Resort,4.6,6792,https://maps.google.com/?cid=9388798821997018730,,,"Rp4,001,067"
38,The Sakala Resort Bali - All Suites,"Jl. Pratama No.95, Benoa, Kec. Kuta Sel., Kabupaten Badung, Bali 80363, Indonesia",Kuta Selatan,Badung,-8.7593706,115.2214357,Stays,Premium Hotel,Beachside Resort,4.4,2698,https://maps.google.com/?cid=6346064753129292306,,,"Rp2,400,000"
39,Discovery Kartika Plaza Bali,"Jl. Kartika Plaza, Kuta, Kec. Kuta Sel., Kabupaten Badung, Bali 80361, Indonesia",Kuta Selatan,Badung,-8.7295641,115.1658425,Stays,Premium Hotel,Beachside Resort,4.4,4861,https://maps.google.com/?cid=6094745359386703154,,,"Rp1,733,333"
40,Urban Styles Inata Bisma Ubud,"Jl. Bisma, Ubud, Kecamatan Ubud, Kabupaten Gianyar, Bali 80571, Indonesia",Ubud,Gianyar,-8.515003,115.2580899,Stays,Standard Hotel,Countryside Villa,4.2,222,https://maps.google.com/?cid=12767175653709021041,,,"Rp810,000"
41,Hilton Bali Resort,"Jl. Raya Nusa Dua Selatan, Benoa, Kec. Kuta Sel., Kabupaten Badung, Bali 80361, Indonesia",Kuta Selatan,Badung,-8.8256848,115.2186745,Stays,Premium Hotel,Beachside Resort,4.6,8404,https://maps.google.com/?cid=7194324978140935542,,,"Rp3,872,000"
42,The ONE Legian,"Jl. Raya Legian No.117, Kuta, Kec. Kuta, Kabupaten Badung, Bali 80361, Indonesia",Kuta,Badung,-8.71403,115.173611,Stays,Standard Hotel,Beachside Hotel,4.3,4910,https://maps.google.com/?cid=5539774582936131903,,,"Rp1,440,000"
43,Prama Sanur Beach Bali,"Jalan Cemara Sanur, Sanur Kauh, Denpasar Selatan, Kota Denpasar, Bali 80228, Indonesia",Denpasar Selatan,Denpasar,-8.7094607,115.2564662,Stays,Premium Hotel,Beachside Resort,4.5,4735,https://maps.google.com/?cid=3607576252505802138,,,"Rp2,268,000"
44,Ramada Encore by Wyndham Bali Seminyak,"Jl. Dewi Saraswati III, Seminyak, Kec. Kuta, Kota Denpasar, Bali 80361, Indonesia",Kuta,Badung,-8.6854918,115.1761508,Stays,Premium Hotel,City Hotel,4.4,5815,https://maps.google.com/?cid=12001731388320182487,,,"Rp1,642,500"
45,ASTON Kuta Hotel & Residence,"Jl. Wana Segara No.2, Kuta, Kec. Kuta, Kabupaten Badung, Bali 80361, Indonesia",Kuta,Badung,-8.7368923,115.1655371,Stays,Premium Hotel,City Hotel,4.5,3760,https://maps.google.com/?cid=17896977147866980907,,,"Rp1,989,000"
46,Merusaka Nusa Dua,"Kawasan Wisata Nusa Dua Lot S-3, Benoa, Kec. Kuta Sel., Kabupaten Badung, Bali 80363, Indonesia",Kuta Selatan,Badung,-8.8049707,115.2294223,Stays,Premium Hotel,Beachside Resort,4.6,8212,https://maps.google.com/?cid=6640509008423919136,,,"Rp3,199,500"
47,Kanishka Villas,"Jalan Kunti I Gang Mangga No. 8Y, Seminyak, Kec. Kuta, Kabupaten Badung, Bali 80361, Indonesia",Kuta,Badung,-8.6887944,115.1688681,Stays,Standard Hotel,Villa,4.2,351,https://maps.google.com/?cid=4968539616201352290,,,"Rp1,435,745"
48,Kanvaz Village Resort Seminyak,"Jl. Petitenget No.188, Seminyak, Kec. Kuta Utara, Kabupaten Badung, Bali 80361, Indonesia",Kuta Utara,Badung,-8.6767634,115.1548259,Stays,Premium Hotel,Boutique Villa,4.7,1100,https://maps.google.com/?cid=5506595315661473369,,,"Rp3,211,884"
49,RIMBA by AYANA Bali,"645Q+4QQ Sky Bridge from Rimba to Ayana Hotel, Estate Sejahtera, Rimba Jimbaran, Jl. Karang Mas, Jimbaran, South Kuta, Badung, Bali 80361, Indonesia",Kuta Selatan,Badung,-8.7934334,115.1394673,Stays,Premium Hotel,Beachside Resort,4.7,5911,https://maps.google.com/?cid=13458810559621731687,,,"Rp3,908,300"
50,Grand Inna Kuta,"Jl. Pantai Kuta No.1, Pande Mas, Kuta, Kec. Kuta, Kabupaten Badung, Bali 80361, Indonesia",Kuta,Badung,-8.7231271,115.1705453,Stays,Premium Hotel,Boutique Villa,4.5,5321,https://maps.google.com/?cid=14975161875348849976,,,"Rp1,920,000"
51,"Nusa Dua Beach Hotel & Spa, Bali","Kawasan Pariwisata Nusa Dua Lot. North 4, Jl. Nusa Dua, Benoa, South Kuta, Badung, Bali 80363, Indonesia",Kuta,Badung,-8.7940956,115.2301618,Stays,Premium Hotel,Beachside Resort,4.6,3472,https://maps.google.com/?cid=10594663883797844500,,,"Rp3,825,858"
52,Mercure Bali Nusa Dua,"Jalan Nusa Dua Selatan Lot Sw 03, Jl. Nusa Dua, Benoa, Kec. Kuta Sel., Kabupaten Badung, Bali 80363, Indonesia",Kuta Selatan,Badung,-8.806821,115.22175,Stays,Standard Hotel,City Hotel,4.3,2855,https://maps.google.com/?cid=9564002293397590456,,,"Rp1,012,044"
53,Padma Resort Ubud,"Padma Resort Ubud Banjar Carik, Desa, Puhu, Kec. Payangan, Kabupaten Gianyar, Bali 80572, Indonesia",Payangan,Gianyar,-8.3834684,115.2745404,Stays,High End Hotel,Countryside Villa,4.8,5247,https://maps.google.com/?cid=7847074353409935796,,,"Rp5,806,729"
54,Conrad Bali,"Jl. Pratama No.168, Tanjung, Benoa, Kec. Kuta Sel., Kabupaten Badung, Bali 80363, Indonesia",Kuta Selatan,Badung,-8.7812388,115.2253741,Stays,Premium Hotel,Beachside Resort,4.7,5266,https://maps.google.com/?cid=15751644144970485544,,,"Rp4,154,334"
55,Grand Hyatt Bali,"Kawasan Wisata Nusa Dua BTDC, Jl. Nusa Dua, Benoa, South Kuta, Badung, Bali 80363, Indonesia",Kuta Selatan,Badung,-8.8036711,115.2332213,Stays,Premium Hotel,Beachside Resort,4.6,8107,https://maps.google.com/?cid=4413825900116371476,,,"Rp3,325,031"
56,Horison Seminyak,"Seminyak, Jl. Arjuna Jl. Double Six, Seminyak, Kec. Kuta, Kabupaten Badung, Bali 80361, Indonesia",Kuta,Badung,-8.6966278,115.1661111,Stays,Premium Hotel,City Hotel,4.4,2387,https://maps.google.com/?cid=11031913673690622514,,,"Rp2,000,000"
57,Aryaduta Bali,"Jl. Kartika Plaza, Lingkungan Segara, Kec. Kuta, Kabupaten Badung, Bali 80361, Indonesia",Kuta,Badung,-8.735787,115.167247,Stays,Standard Hotel,Beachside Hotel,4.5,2190,https://maps.google.com/?cid=2643985164651635870,,,"Rp1,380,000"
58,Swiss Belhotel Tuban,"Jl. Kubu Anyar No.31, Tuban, Kec. Kuta, Kabupaten Badung, Bali 80361, Indonesia",Kuta,Badung,-8.7332129,115.1709632,Stays,Standard Hotel,City Hotel,4.7,6833,https://maps.google.com/?cid=12958646073613606511,,,"Rp990,667"
59,Hotel Dafam Savvoya Seminyak,"Jl. Mertanadi No.14, Seminyak, Kec. Kuta, Kabupaten Badung, Bali 80361, Indonesia",Kuta,Badung,-8.6828678,115.1672293,Stays,Standard Hotel,City Hotel,4.2,1483,https://maps.google.com/?cid=2578422462025139276,,,"Rp1,099,156"
60,The Lerina Hotel Nusa Dua,"Jl. Bypass Ngurah Rai No.1001X, Benoa, Kec. Kuta Sel., Kabupaten Badung, Bali 80361, Indonesia",Kuta Selatan,Badung,-8.785802,115.20189,Stays,Standard Hotel,Beachside Hotel,4.3,2051,https://maps.google.com/?cid=4606796864938249445,,,"Rp945,000"
61,Four Star by Trans Hotel,"Jl. Raya Puputan No.200, Renon, Denpasar Selatan, Kota Denpasar, Bali 80226, Indonesia",Denpasar Selatan,Denpasar,-8.6738003,115.2423278,Stays,Standard Hotel,City Hotel,4.5,862,https://maps.google.com/?cid=12391683175558311121,,,"Rp760,000"
62,Bali Dynasty Resort,"Jl. Kartika Plaza, Tuban, Kec. Kuta, Kabupaten Badung, Bali 80361, Indonesia",Kuta,Badung,-8.7312998,115.1660484,Stays,Premium Hotel,Beachside Resort,4.5,4163,https://maps.google.com/?cid=5977490526561786738,,,"Rp2,097,144"
63,Wyndham Garden Kuta Beach Bali,"Jl. Pantai Kuta No.99 X, Legian, Kec. Kuta, Kabupaten Badung, Bali 80361, Indonesia",Kuta,Badung,-8.7122181,115.1678406,Stays,Standard Hotel,City Hotel,4.1,1666,https://maps.google.com/?cid=3625007746644824811,,,"Rp1,032,000"
64,Hotel Santika Siligita Nusa Dua,"Banjar Peminge, Jl. Siligita No.3A, Nusa Dua, Benoa, Kec. Kuta Sel., Kabupaten Badung, Bali 80571, Indonesia",Kuta Selatan,Badung,-8.8048542,115.2220182,Stays,Standard Hotel,Beachside Hotel,4.4,1953,https://maps.google.com/?cid=8452002582376478021,,,"Rp1,166,667"
65,Sheraton Bali Kuta Resort,"Jl. Pantai Kuta, Kuta, Kec. Kuta, Kabupaten Badung, Bali 80361, Indonesia",Kuta,Badung,-8.7182893,115.1695705,Stays,Premium Hotel,Beachside Resort,4.7,6624,https://maps.google.com/?cid=11166494907059452735,,,"Rp3,468,667"
66,Tribe Bali Kuta Beach,"Jl. Pantai Kuta No.99, Legian, Kec. Kuta, Kabupaten Badung, Bali 80361, Indonesia",Kuta,Badung,-8.712541,115.167766,Stays,Premium Hotel,Beachside Hotel,4.5,680,https://maps.google.com/?cid=5806778546963391030,,,"Rp1,637,857"
67,Kaisa Villas Seminyak,"Jl. Bali Deli No.88, Seminyak, Kec. Kuta, Kabupaten Badung, Bali 80361, Indonesia",Kuta,Badung,-8.6866237,115.1695392,Stays,Premium Hotel,Villa,4.4,189,https://maps.google.com/?cid=12517064069479348342,,,"Rp2,450,000"
68,Novotel Bali Nusa Dua - Hotel & Residences,"Jl. Pantai Mengiat, Benoa, Kec. Kuta Sel., Bali, 80363, Indonesia",Kuta Selatan,Badung,-8.8080515,115.2265242,Stays,Premium Hotel,Beachside Resort,4.7,6010,https://maps.google.com/?cid=9756156381209995845,,,"Rp1,902,120"
69,Danoya Villa Seminyak,"Jl. Batubelig No. 559, Seminyak, Kerobokan Kelod, Kec. Kuta Utara, Kabupaten Badung, Bali 80361, Indonesia",Kuta Utara,Badung,-8.6729146,115.1548373,Stays,Premium Hotel,Villa,4.3,585,https://maps.google.com/?cid=15933322794474076960,,,"Rp3,663,000"
70,Grand Palace Hotel Sanur - Bali,"Jl. Bypass Ngurah Rai No.165, Sanur, Denpasar Selatan, Kota Denpasar, Bali 80228, Indonesia",Denpasar Selatan,Denpasar,-8.6877061,115.2589775,Stays,Standard Hotel,City Hotel,4.5,1111,https://maps.google.com/?cid=17787088249624482208,,,"Rp1,035,000"
71,HARRIS Hotel and Conventions Denpasar Bali,"Jl. Cokroaminoto No.23-25, Pemecutan Kaja, Kec. Denpasar Utara, Kota Denpasar, Bali 80118, Indonesia",Denpasar Utara,Denpasar,-8.6448542,115.2089185,Stays,Standard Hotel,City Hotel,4.4,3394,https://maps.google.com/?cid=17027610622116358414,,,"Rp568,000"
72,THE 1O1 Bali Oasis Sanur,"Jl. Danau Tamblingan No.136A, Sanur, Denpasar Selatan, Kota Denpasar, Bali 80228, Indonesia",Denpasar Selatan,Denpasar,-8.6954135,115.2636496,Stays,Standard Hotel,City Hotel,4.2,1323,https://maps.google.com/?cid=9510219289894830067,,,"Rp1,492,000"
73,HARRIS Hotel Kuta Tuban Bali,"Jl. Dewi Sartika, Tuban, Kec. Kuta, Kabupaten Badung, Bali 80361, Indonesia",Kuta,Badung,-8.7403304,115.1669791,Stays,Standard Hotel,City Hotel,4.5,4110,https://maps.google.com/?cid=17874279228357216470,,,"Rp973,333"
74,Mövenpick Resort and Spa Bali,"Jimbaran Bali, Jl. Wanagiri No.1, Jimbaran, Kec. Kuta Sel., Kabupaten Badung, Bali 80362, Indonesia",Kuta Selatan,Badung,-8.785719,115.1637539,Stays,Premium Hotel,Beachside Resort,4.7,6164,https://maps.google.com/?cid=4824645644879043535,,,"Rp3,285,734"
75,Kuta Paradiso Hotel,"Jl. Kartika Plaza, Tuban, Kec. Kuta, Kabupaten Badung, Bali 80361, Indonesia",Kuta,Badung,-8.7256886,115.1701928,Stays,Premium Hotel,Beachside Hotel,4.2,3119,https://maps.google.com/?cid=1231882474347053854,,,"Rp2,240,000"
76,Diamond Hotel Kuta Bali,"Jl. Raya Kuta No.39, Kuta, Kec. Kuta, Kabupaten Badung, Bali 80361, Indonesia",Kuta,Badung,-8.7098059,115.1815339,Stays,Standard Hotel,City Hotel,4.2,435,https://maps.google.com/?cid=4781469510122444483,,,"Rp783,000"
77,Hotel Santika Seminyak,"Jl. Sunset Road No.17, Seminyak, Kec. Kuta, Kabupaten Badung, Bali 80361, Indonesia",Kuta,Badung,-8.6902159,115.1731964,Stays,Standard Hotel,City Hotel,4.5,1842,https://maps.google.com/?cid=3872854126658128628,,,"Rp985,000"
78,Hyatt Regency Bali,"Jl. Danau Tamblingan No.89, Sanur, Denpasar Selatan, Kota Denpasar, Bali 80228, Indonesia",Denpasar Selatan,Denpasar,-8.702184,115.2632407,Stays,Premium Hotel,Beachside Resort,4.7,2840,https://maps.google.com/?cid=18281155865667730568,,,"Rp3,201,881"
79,Villa Kayu Raja,"Kerobokan, Jl. Lb. Sari Jl. Petitenget No.18, Seminyak, Kec. Kuta, Kabupaten Badung, Bali 80361, Indonesia",Kuta,Badung,-8.6766874,115.1588431,Stays,Premium Hotel,Boutique Villa,4.5,1347,https://maps.google.com/?cid=1504660208011047128,,,"Rp4,130,995"
80,Pullman Bali Legian Beach,"Jl. Melasti No.1, Legian, Kec. Kuta, Kabupaten Badung, Bali 80361, Indonesia",Kuta,Badung,-8.7095159,115.1672114,Stays,Premium Hotel,Beachside Hotel,4.6,5559,https://maps.google.com/?cid=5650384792718308266,,,"Rp2,420,000"
81,Bintang Bali Resort,"Jl. Kartika Plaza, Kuta, Kec. Kuta, Kabupaten Badung, Bali 80361, Indonesia",Kuta,Badung,-8.7336801,115.1650499,Stays,Premium Hotel,Beachside Resort,4.4,2002,https://maps.google.com/?cid=243741809398899765,,,"Rp2,124,000"
82,Amaris Hotel Pratama Nusa Dua,"Jl. Pratama, Banjar Celuk, Benoa, Kec. Kuta Sel., Kabupaten Badung, Bali 80363, Indonesia",Kuta Selatan,Badung,-8.7962537,115.2247298,Stays,Standard Hotel,City Hotel,4.1,1215,https://maps.google.com/?cid=6043881550824709192,,,"Rp500,000"
83,The Ritz-Carlton Bali,"Jl. Raya Nusa Dua Selatan Jl. Nusa Dua, Lot III, Sawangan, Kec. Kuta Sel., Bali, 80361, Indonesia",Kuta Selatan,Badung,-8.8306709,115.2153312,Stays,High End Hotel,Beachside Resort,4.6,3791,https://maps.google.com/?cid=12897346423151704255,,,"Rp6,292,000"
84,The Patra Bali Resort & Villas,"Jl.Ir. H. Juanda South Kuta Beach, Tuban, Kuta, Badung, Bali 80361, Indonesia",Kuta,Badung,-8.7396213,115.16165,Stays,Premium Hotel,Beachside Resort,4.5,3023,https://maps.google.com/?cid=17107546738829427888,,,"Rp1,782,000"
85,favehotel Sunset Seminyak,"Jl. Sunset Road No.89, Seminyak, Kec. Kuta, Kabupaten Badung, Bali 80361, Indonesia",Kuta,Badung,-8.684011,115.168672,Stays,Standard Hotel,City Hotel,4.2,1263,https://maps.google.com/?cid=4609969024671581682,,,"Rp816,480"
86,Melia Bali,"Jl. Kw. Nusa Dua Resort Itdc Lot 1, Jl. Nusa Dua, Benoa, Kec. Kuta Sel., Bali, 80363, Indonesia",Kuta Selatan,Badung,-8.7990235,115.2319056,Stays,Premium Hotel,Beachside Resort,4.5,4942,https://maps.google.com/?cid=11326762126794714425,,,"Rp2,607,669"
87,THE 1O1 Bali Fontana Seminyak,"Jl. Dewi Sri No.68, Legian, Kec. Kuta, Kabupaten Badung, Bali 80361, Indonesia",Kuta,Badung,-8.7043089,115.1769916,Stays,Premium Hotel,City Hotel,4.4,3354,https://maps.google.com/?cid=6687434705672535305,,,"Rp1,733,333"
88,Hotel Indigo BALI SEMINYAK BEACH,"Jl. Camplung Tanduk No.10, Seminyak, Bali, Kabupaten Badung, Bali 80361, Indonesia",Kuta,Badung,-8.695094,115.162367,Stays,High End Hotel,Beachside Hotel,4.8,5052,https://maps.google.com/?cid=8042986443357267166,,,"Rp5,096,637"
89,Mamaka by Ovolo,"Jl. Pantai Kuta No.32, Legian, Kec. Kuta, Kabupaten Badung, Bali 80361, Indonesia",Kuta,Badung,-8.7127983,115.1677578,Stays,Premium Hotel,Beachside Hotel,4.6,1080,https://maps.google.com/?cid=15237585482510321336,,,"Rp1,911,714"
90,The Trans Resort Bali,"Jl. Sunset Road No.30, Kerobokan Kelod, Kec. Kuta Utara, Kabupaten Badung, Bali 80361, Indonesia",Kuta Utara,Badung,-8.6816831,115.1665164,Stays,Premium Hotel,Beachside Hotel,4.7,5683,https://maps.google.com/?cid=14672431854320809170,,,"Rp3,450,000"
91,The Nest Hotel Nusa Dua,"Jl. Pratama No.99X, Benoa, Kec. Kuta Sel., Kabupaten Badung, Bali 80363, Indonesia",Kuta Selatan,Badung,-8.7885378,115.2258362,Stays,Standard Hotel,Countryside Hotel,4.4,933,https://maps.google.com/?cid=16922153860920460739,,,"Rp1,080,000"
92,Plataran Canggu Resort and Spa,"Jalan Pengubugan Banjar, Jl. Silayukti, Kerobokan, Kec. Kuta Utara, Kabupaten Badung, Bali 80361, Indonesia",Kuta Utara,Badung,-8.6505962,115.1666168,Stays,High End Hotel,Countryside Villa,4.7,786,https://maps.google.com/?cid=15981879927678661328,,,"Rp5,717,250"
93,Grand Whiz Hotel Nusa Dua,"Komplek Wisata Nusa Dua, Jl. Kw. Nusa Dua Resort, Benoa, Kec. Kuta Sel., Kabupaten Badung, Bali 80363, Indonesia",Kuta Selatan,Badung,-8.7914192,115.2278679,Stays,Standard Hotel,Beachside Hotel,4.4,2132,https://maps.google.com/?cid=1895011848719294443,,,"Rp1,164,500"
94,Swiss-Belresort Watu Jimbar,"Jl. Danau Tamblingan No.99A, Sanur, Denpasar Selatan, Kota Denpasar, Bali 80228, Indonesia",Denpasar Selatan,Denpasar,-8.6914616,115.2627412,Stays,Standard Hotel,City Hotel,4.4,3055,https://maps.google.com/?cid=10415749021881377917,,,"Rp1,180,000"
95,Hilton Garden Inn Bali Ngurah Rai Airport,"Jl. Airport Ngurah Rai No.7, Tuban, Kec. Kuta, Kabupaten Badung, Bali 80361, Indonesia",Kuta,Badung,-8.7436776,115.17103,Stays,Standard Hotel,City Hotel,4.2,3398,https://maps.google.com/?cid=3193138659654143252,,,"Rp1,116,250"
96,Lloyd's Inn Bali,"Jl. Arjuna, Seminyak, Kec. Kuta, Kabupaten Badung, Bali 80361, Indonesia",Kuta,Badung,-8.6966128,115.1639467,Stays,Premium Hotel,City Hotel,4.2,1148,https://maps.google.com/?cid=769829768075119515,,,"Rp1,959,404"
97,Courtyard by Marriott Bali Seminyak Resort,"Jalan Camplung Tanduk, Sp Jl. Dhyana Pura No.103, Seminyak, Kuta, Badung, Bali 80361, Indonesia",Kuta,Badung,-8.6919082,115.1622101,Stays,Premium Hotel,City Hotel,4.7,3239,https://maps.google.com/?cid=13854009789390306699,,,"Rp2,662,000"
98,Ramada by Wyndham Bali Sunset Road Kuta,"Jl. Sunset Road No.9, Seminyak, Kec. Kuta, Kabupaten Badung, Bali 80361, Indonesia",Kuta,Badung,-8.7040005,115.1816219,Stays,Standard Hotel,City Hotel,4.2,3147,https://maps.google.com/?cid=18252685618038349241,,,"Rp852,163"
99,Grand Istana Rama Hotel,"Jl. Pantai Kuta, Kuta, Kec. Kuta, Kabupaten Badung, Bali 80361, Indonesia",Kuta,Badung,-8.7158445,115.1684667,Stays,Standard Hotel,Beachside Hotel,4.4,2247,https://maps.google.com/?cid=14815275873681675263,,,"Rp1,242,487"
100,Hotel Nikko Bali Benoa Beach,"Jl. Pratama No.68X, Tanjung, Benoa, Kec. Kuta Sel., Kabupaten Badung, Bali 80363, Indonesia",Kuta Selatan,Badung,-8.7720415,115.2226351,Stays,Premium Hotel,Beachside Hotel,4.5,1558,https://maps.google.com/?cid=189218359351594164,,,"Rp1,807,937"
101,Boss Legian Hotel,"Jl. Werkudara Jl. Raya Legian No.465, Legian, Kec. Kuta, Kabupaten Badung, Bali 80361, Indonesia",Kuta,Badung,-8.7006154,115.1687415,Stays,Budget Hotel,Beachside Hotel,4.1,547,https://maps.google.com/?cid=14101373662416174365,,,"Rp491,323"
102,Courtyard by Marriott Bali Nusa Dua Resort,"Kawasan Pariwisata, Jl. Nusa Dua Lot Sw1, Benoa, Kec. Kuta Sel., Bali, 80363, Indonesia",Kuta Selatan,Badung,-8.8069991,115.2262474,Stays,Premium Hotel,Beachside Resort,4.6,3476,https://maps.google.com/?cid=11316110440759310323,,,"Rp2,581,333"
103,Aksari Resort Ubud,"Jl. Raya Desa Kenderan No.88x, Kenderan, Kecamatan Ubud, Kabupaten Gianyar, Bali 80561, Indonesia",Ubud,Gianyar,-8.4284216,115.2976044,Stays,High End Hotel,Countryside Resort,4.7,1119,https://maps.google.com/?cid=11876361776436705032,,,"Rp7,480,000"
104,Tijili Benoa Hotel,"Kuta Selatan, South Kuta, Badung, Bali, Indonesia",Kuta Selatan,Badung,-8.777523,115.2237906,Stays,Premium Hotel,Beachside Hotel,4.6,3596,https://maps.google.com/?cid=3613945911438278226,,,"Rp1,890,000"
105,The St. Regis Bali Resort - CHSE Certified,"Kawasan Nusa Dua, Benoa, South Kuta, Badung, Bali 80363, Indonesia",Kuta Selatan,Badung,-8.8128275,115.2264772,Stays,Luxury Hotel,Beachside Resort,4.8,2481,https://maps.google.com/?cid=4189511058657882657,,,"Rp10,164,000"
106,Swiss Belhotel Rainforest,"Jl. Sunset Road No.101, Kuta, Kec. Kuta, Kabupaten Badung, Bali 80361, Indonesia",Kuta,Badung,-8.708434,115.184582,Stays,Standard Hotel,City Hotel,4.5,4648,https://maps.google.com/?cid=6882070360664191934,,,"Rp1,113,333"
107,Bedrock Hotel Kuta Bali,"Jl. Wana Segara No.21, Kuta, Kec. Kuta, Kabupaten Badung, Bali 80361, Indonesia",Kuta,Badung,-8.7373811,115.1665087,Stays,Premium Hotel,City Hotel,4.2,2052,https://maps.google.com/?cid=9360019363320079981,,,"Rp1,530,000"
108,Four Seasons Resort Bali at Jimbaran Bay - CHSE Certified,"Jimbaran, Bay, Jimbaran, South Kuta, Badung, Bali 80361, Indonesia",Kuta Selatan,Badung,-8.7844217,115.1588127,Stays,Super Luxury Hotel,Beachside Resort,4.7,2446,https://maps.google.com/?cid=16382609364309970082,,,"Rp24,377,467"
109,HARRIS Hotel Seminyak,"Jl. Drupadi No.99, Seminyak, Kec. Kuta, Kabupaten Badung, Bali 80361, Indonesia",Kuta,Badung,-8.6895168,115.1638091,Stays,Standard Hotel,City Hotel,4.3,2486,https://maps.google.com/?cid=3502265460438983035,,,"Rp1,005,000"
110,Benoa Sea Suites and Villas,"Jl. Pratama Jl. Taman Segara, Tanjung, Benoa, Kec. Kuta Sel., Kabupaten Badung, Bali 80361, Indonesia",Kuta Selatan,Badung,-8.7693414,115.222306,Stays,Premium Hotel,Beachside Hotel,4.4,351,https://maps.google.com/?cid=3462048140865218090,,,"Rp2,880,000"
111,Grand Zuri Kuta Bali,"Jl. Raya Kuta No.81, Kuta, Kec. Kuta, Kabupaten Badung, Bali 80361, Indonesia",Kuta,Badung,-8.7116773,115.1813914,Stays,Standard Hotel,City Hotel,4.6,5598,https://maps.google.com/?cid=9224913353438972690,,,"Rp1,136,591"
112,Prime Plaza Hotel Sanur – Bali,"Jl. Bypass Ngurah Rai No.83, Sanur, Denpasar Selatan, Kota Denpasar, Bali 80228, Indonesia",Denpasar Selatan,Denpasar,-8.6759624,115.2601494,Stays,Standard Hotel,City Hotel,4.5,4775,https://maps.google.com/?cid=2065937166450428490,,,"Rp1,307,992"
113,Bali Paragon Resort Hotel,"Jl. Raya Kampus Unud, Jimbaran, Bali, Kabupaten Badung, Bali 80361, Indonesia",Kuta Selatan,Badung,-8.7851078,115.178056,Stays,Standard Hotel,City Hotel,4.4,2658,https://maps.google.com/?cid=186170976458110355,,,"Rp1,313,641"
114,Samabe Bali Suites & Villas,"Jl. Pura, Barong - Barong Sawangan, Jl. Raya Nusa Dua Selatan, Benoa, Kec. Kuta Sel., Kabupaten Badung, Bali 80363, Indonesia",Kuta Selatan,Badung,-8.8335762,115.2116751,Stays,High End Hotel,Beachside Resort,4.7,1453,https://maps.google.com/?cid=10029028002671749438,,,"Rp7,185,914"
115,Fairfield by Marriott Bali Kuta Sunset Road,"Jl. Merdeka Raya No.VII, Abianbase, Kec. Kuta, Kabupaten Badung, Bali 80361, Indonesia",Kuta,Badung,-8.71585,115.184178,Stays,Premium Hotel,City Hotel,4.6,1450,https://maps.google.com/?cid=16934113025009398417,,,"Rp1,581,067"
116,"Four Points by Sheraton Bali, Kuta","Jl. Benesari, Banjar Pengabetan, Kec. Kuta, Kabupaten Badung, Bali 80361, Indonesia",Kuta,Badung,-8.7138596,115.17112,Stays,Premium Hotel,City Hotel,4.5,2639,https://maps.google.com/?cid=6985520270396942070,,,"Rp1,613,333"
117,Alila Seminyak,"Jl. Taman Ganesha Jl. Petitenget No.9, Seminyak, Kec. Kuta Utara, Kabupaten Badung, Bali 80361, Indonesia",Kuta Utara,Badung,-8.680121,115.150905,Stays,High End Hotel,Beachside Resort,4.7,3441,https://maps.google.com/?cid=12429767759132428939,,,"Rp7,381,485"
118,Mercure Bali Legian,"Jl. Raya Legian No.328, Legian, Kelod, Bali, 80361, Indonesia",Kuta,Badung,-8.7080606,115.1723776,Stays,Standard Hotel,Beachside Resort,4.5,4435,https://maps.google.com/?cid=14935229869736685714,,,"Rp1,176,120"
119,Grand Kuta Hotel & Residence,"Jl. Dewi Sri No.8, Legian, Kec. Kuta, Bali, 80361, Indonesia",Kuta,Badung,-8.7001905,115.1765174,Stays,Standard Hotel,City Hotel,4.3,899,https://maps.google.com/?cid=3921331218971554467,,,"Rp1,260,000"
120,Pandawa Hill Resort,"Jl. Pantai Pandawa No.15, Kutuh, Kec. Kuta Sel., Kabupaten Badung, Bali 80361, Indonesia",Kuta Selatan,Badung,-8.8368833,115.1815055,Stays,Standard Hotel,City Hotel,4.4,954,https://maps.google.com/?cid=17051521262272081572,,,"Rp864,800"
121,Artotel Sanur - Bali,"Jl. Kusuma Sari No.1, Sanur, Denpasar Selatan, Kota Denpasar, Bali 80227, Indonesia",Denpasar Selatan,Denpasar,-8.7054772,115.2608695,Stays,Standard Hotel,City Hotel,4.5,1984,https://maps.google.com/?cid=107411040292710836,,,"Rp1,182,600"
122,Bulgari Resort Bali - CHSE Certified,"Banjar Dinas Kangin Jalan Goa Lempeh Jalan Raya Uluwatu, Pecatu, Kec. Kuta Sel., Kabupaten Badung, Bali 80364, Indonesia",Kuta Selatan,Badung,-8.8429187,115.1216909,Stays,Super Luxury Hotel,Beachside Resort,4.8,2506,https://maps.google.com/?cid=16254083237683749527,,,"Rp37,348,667"
123,Holiday Inn Resort Bali Benoa,"Jl. Pratama No.86, Tanjung, Benoa, Kec. Kuta Sel., Kabupaten Badung, Bali 80363, Indonesia",Kuta Selatan,Badung,-8.7822717,115.2253819,Stays,Premium Hotel,Beachside Resort,4.6,1796,https://maps.google.com/?cid=13837934811739670278,,,"Rp2,572,999"
124,Bhanuswari Resort & Spa,"Jalan Tengkulak Tengah Kemenuh Sukawati, Kemenuh, Kec. Gianyar, Kabupaten Gianyar, Bali 80552, Indonesia",Gianyar,Gianyar,-8.5397666,115.2872541,Stays,High End Hotel,Countryside Villa,4.3,558,https://maps.google.com/?cid=7634827119962715443,,,"Rp9,176,472"
125,Buana Bali Villas & Spa,"Jl. Raya Puri Gading II, Jimbaran, Kec. Kuta Sel., Kabupaten Badung, Bali 80361, Indonesia",Kuta Selatan,Badung,-8.8056495,115.149935,Stays,High End Hotel,Villa,4.4,477,https://maps.google.com/?cid=13688585750456401060,,,"Rp5,580,000"
126,Le Meridien Bali Jimbaran - CHSE Certified,"Jl. Bukit Permai, Jimbaran, Kec. Kuta Sel., Kabupaten Badung, Bali 80361, Indonesia",Kuta Selatan,Badung,-8.7817801,115.1655883,Stays,Premium Hotel,Beachside Resort,4.4,1802,https://maps.google.com/?cid=17173482763371215976,,,"Rp2,339,333"
127,Anantara Bali Uluwatu Resort,"Jl. Pemutih, Jl. Labuansait, Pecatu, Kec. Kuta Sel., Kabupaten Badung, Bali 80361, Indonesia",Kuta Selatan,Badung,-8.8085355,115.107911,Stays,Luxury Hotel,Beachside Resort,4.5,2318,https://maps.google.com/?cid=17597146267918428227,,,"Rp10,742,548"
128,Hadi Poetra Hotel,"Jl. Raya Kuta No.323-378, Kuta, Kec. Kuta, Kabupaten Badung, Bali 80361, Indonesia",Kuta,Badung,-8.7282315,115.1768328,Stays,Standard Hotel,City Hotel,4.2,834,https://maps.google.com/?cid=9673139097026996328,,,"Rp1,034,000"
129,SIX SENSES ULUWATU BALI,"Jl. Goa Lempeh, Uluwatu, Kec. Kuta Sel., Kabupaten Badung, Bali 80361, Indonesia",Kuta Selatan,Badung,-8.8442826,115.1298202,Stays,Luxury Hotel,Beachside Resort,4.6,1830,https://maps.google.com/?cid=13468133784366561224,,,"Rp12,963,888"
130,"Mandapa, A Ritz-Carlton Reserve","Jl. Raya Kedewatan, Banjar, Kedewatan, Kecamatan Ubud, Kabupaten Gianyar, Bali 80571, Indonesia",Ubud,Gianyar,-8.4859273,115.2453955,Stays,Super Luxury Hotel,Countryside Resort,4.8,2989,https://maps.google.com/?cid=4501694768053777965,,,"Rp21,175,001"
131,BEST WESTERN Kuta Villa,"Jl. Nyangnyang Sari, Kuta, Kec. Kuta, Kabupaten Badung, Bali 80361, Indonesia",Kuta,Badung,-8.733309,115.176536,Stays,Standard Hotel,Villa,4.3,2174,https://maps.google.com/?cid=7405579098753711550,,,"Rp540,000"
132,ibis Styles Bali Benoa,"Jl. Pratama No.57A, Benoa, Kec. Kuta Sel., Kabupaten Badung, Bali 80361, Indonesia",Kuta Selatan,Badung,-8.7822738,115.2244592,Stays,Standard Hotel,City Hotel,4.1,1909,https://maps.google.com/?cid=13110185047093060541,,,"Rp978,360"
133,The Mulia - Nusa Dua,"Kawasan Sawangan, Jl. Raya Nusa Dua Selatan Jl. Nusa Dua, Benoa, Kec. Kuta Sel., Kabupaten Badung, Bali 80362, Indonesia",Kuta Selatan,Badung,-8.8162105,115.221174,Stays,Luxury Hotel,Beachside Resort,4.6,7859,https://maps.google.com/?cid=13910365954518270966,,,"Rp11,777,533"
134,Amaris Teuku Umar Denpasar,"Jl. Teuku Umar No.139, Dauh Puri Kauh, Kec. Denpasar Bar., Kota Denpasar, Bali 80113, Indonesia",Denpasar Barat,Denpasar,-8.6809145,115.2029876,Stays,Budget Hotel,City Hotel,4.2,1772,https://maps.google.com/?cid=12953774743305450335,,,"Rp460,825"
135,Stark Boutique Hotel and Spa Bali,"Jl. Kartika Plaza No.20, Kuta, Kec. Kuta, Kabupaten Badung, Bali 80361, Indonesia",Kuta,Badung,-8.7370299,115.1670756,Stays,Standard Hotel,City Hotel,4.2,1387,https://maps.google.com/?cid=14501580223142375692,,,"Rp1,086,869"
136,b Hotel Bali & Spa,"Jl. Imam Bonjol No.508, Pemecutan Klod, Kec. Denpasar Bar., Kota Denpasar, Bali 80119, Indonesia",Denpasar Barat,Denpasar,-8.7035625,115.184132,Stays,Premium Hotel,City Hotel,4.4,2561,https://maps.google.com/?cid=8730217175880682175,,,"Rp1,596,942"
137,Lovina Beach Club & Resort,"Jl. Seririt- Singaraja, Tukadmungga, Kec. Buleleng, Kabupaten Buleleng, Bali 81119, Indonesia",Buleleng,Buleleng,-8.140103,115.051173,Stays,Premium Hotel,Beachside Resort,4.5,1128,https://maps.google.com/?cid=9024134428530652516,,,"Rp1,521,000"
138,"Marriott's Autograph Collection, The Stones Hotel, Bali","Jl. Raya Pantai Kuta Banjar Legian Kelod Legian Bali, The Stones Entertainment Center, Legian, Kec. Kuta, Kabupaten Badung, Bali 80361, Indonesia",Kuta,Badung,-8.7113484,115.167767,Stays,Premium Hotel,City Hotel,4.6,4573,https://maps.google.com/?cid=9094682167828100978,,,"Rp2,920,133"
139,Ohana Hotel Kuta,"Jl. Kubu Anyar No.20, Kuta, Kec. Kuta, Kabupaten Badung, Bali 80361, Indonesia",Kuta,Badung,-8.7258754,115.1755145,Stays,Standard Hotel,City Hotel,4.1,1015,https://maps.google.com/?cid=5011326731507320308,,,"Rp1,350,000"
140,Seminyak Icon by Karaniya Experience,"Dewi Madri, Jl. Bali Deli, Seminyak, Kec. Kuta, Kabupaten Badung, Bali 80361, Indonesia",Kuta,Badung,-8.6863282,115.1693443,Stays,High End Hotel,Boutique Villa,4.6,346,https://maps.google.com/?cid=12471815883033475168,,,"Rp7,362,500"
141,SOL by Melia Benoa Bali-All Inclusive,"Kuta Selatan, South Kuta, Badung, Bali, Indonesia",Kuta Selatan,Badung,-8.7868498,115.2263646,Stays,Premium Hotel,Beachside Resort,4.4,1355,https://maps.google.com/?cid=2750155343923967841,,,"Rp1,599,624"
142,HOTEL & RESIDENCES Riverview Kuta - Bali (Associated HARRIS),"Jl. Raya Kuta No.62A, Kuta, Kec. Kuta, Kabupaten Badung, Bali 80361, Indonesia",Kuta,Badung,-8.7178282,115.1808951,Stays,Standard Hotel,City Hotel,4.3,2360,https://maps.google.com/?cid=3474459266503390157,,,"Rp925,200"
143,Hotel Santika Kuta,"Jl. Raya Kuta No.98, Kuta, Kec. Kuta, Kabupaten Badung, Bali 80361, Indonesia",Kuta,Badung,-8.7213889,115.1794444,Stays,Standard Hotel,City Hotel,4.3,1388,https://maps.google.com/?cid=18085034688235804998,,,"Rp945,000"
144,Wyndham Tamansari Jivva Resort,"Pantai Lepang, Jl. Subak Lepang No.16, Takmung, Kec. Banjarangkan, Kabupaten Klungkung, Bali 80752, Indonesia",Banjar,Klungkung,-8.573117,115.3837247,Stays,Standard Hotel,Beachside Resort,4.5,2245,https://maps.google.com/?cid=13615230249531469615,,,"Rp1,018,125"
145,Nunamkhalu Private Villas & Spa,"Jl. Melasti II, Kutuh, Kec. Kuta Sel., Kabupaten Badung, Bali 80361, Indonesia",Kuta Selatan,Badung,-8.8348817,115.1795756,Stays,High End Hotel,Boutique Villa,4.8,188,https://maps.google.com/?cid=10827829939338415458,,,"Rp6,818,181"
146,Kaamala Resort Ubud,"No.888 x, Jl. Bisma No.888x, Ubud, Kecamatan Ubud, Kabupaten Gianyar, Bali 80571, Indonesia",Ubud,Gianyar,-8.516352,115.257699,Stays,High End Hotel,Countryside Resort,4.8,1066,https://maps.google.com/?cid=17919249353498754070,,,"Rp5,073,821"
147,Abian Harmony Hotel & Spa,"Jl. Danau Tamblingan No.192, Sanur, Denpasar Selatan, Kota Denpasar, Bali 80229, Indonesia",Denpasar Selatan,Denpasar,-8.7033512,115.2608443,Stays,Standard Hotel,City Hotel,3.9,918,https://maps.google.com/?cid=5810265576221986885,,,"Rp1,307,968"
148,ibis Styles Bali Denpasar,"Jl. Teuku Umar No.183, Dauh Puri Kauh, Kec. Denpasar Bar., Kota Denpasar, Bali 80114, Indonesia",Denpasar Barat,Denpasar,-8.679195,115.205479,Stays,Standard Hotel,City Hotel,4.2,3075,https://maps.google.com/?cid=15843070221249290729,,,"Rp570,274"
149,"Four Points by Sheraton Bali, Ungasan","Jl. Raya Uluwatu Banjar Giri Dharma, Ungasan, Kec. Kuta Sel., Kabupaten Badung, Bali 80364, Indonesia",Kuta Selatan,Badung,-8.8087356,115.158855,Stays,Standard Hotel,Countryside Hotel,4.6,1439,https://maps.google.com/?cid=1608679012647471165,,,"Rp1,290,667"
150,Vinila Villas Nusa Dua by Nakula,"Jl. Desa Sawangan, Benoa, Kec. Kuta Sel., Kabupaten Badung, Bali 80361, Indonesia",Kuta Selatan,Badung,-8.8181142,115.2147393,Stays,High End Hotel,Boutique Villa,4.7,251,https://maps.google.com/?cid=3853217767739793928,,,"Rp5,568,750"
151,Kamandalu Ubud,"Jl. Raya Andong, Banjar Nagi, Kecamatan Ubud, Kabupaten Gianyar, Bali 80571, Indonesia",Ubud,Gianyar,-8.49558,115.2758432,Stays,High End Hotel,Countryside Resort,4.5,465,https://maps.google.com/?cid=12106211837175423237,,,"Rp5,083,724"
152,The Light Exclusive Villa and Spa,"Jalan Pangkung Sari No. 11 Seminyak Kuta, Kerobokan Kelod, Kec. Kuta Utara, Kabupaten Badung, Bali 80361, Indonesia",Kuta Utara,Badung,-8.6794886,115.1602502,Stays,Premium Hotel,Villa,4.5,495,https://maps.google.com/?cid=17664234438248190626,,,"Rp1,788,600"
153,Zizz Convention Hotel,"Jln. Mudutaki V No.2 Tegal Jaya, Dalung, Kec. Kuta Utara, Kabupaten Badung, Bali 80117, Indonesia",Kuta Utara,Badung,-8.633769,115.179138,Stays,Standard Hotel,City Hotel,3.9,592,https://maps.google.com/?cid=6792310592286711616,,,"Rp800,001"
154,The Akmani Legian,"Jl. Raya Legian No.177, Kuta, Kec. Kuta, Kabupaten Badung, Bali 80361, Indonesia",Kuta,Badung,-8.7127353,115.1730496,Stays,Standard Hotel,City Hotel,4.2,1369,https://maps.google.com/?cid=878871254546164467,,,"Rp1,144,243"
155,The Vira Bali Boutique Hotel & Suite,"Jl. Kartika Plaza No.127, Kuta, Kec. Kuta, Kabupaten Badung, Bali 80361, Indonesia",Kuta,Badung,-8.7352404,115.1675896,Stays,Premium Hotel,Boutique Villa,4.5,908,https://maps.google.com/?cid=3640900028718316417,,,"Rp2,821,500"
156,Famous Hotel Kuta,"Jl. Kediri No.5, Tuban, Kec. Kuta, Denpasar, Bali 80361, Indonesia",Kuta,Badung,-8.7372947,115.176876,Stays,High End Hotel,City Hotel,4.5,474,https://maps.google.com/?cid=570167902666089007,,,"Rp5,760,000"
157,Element by Westin Bali Ubud,"Jl. Raya Andong No.88, Petulu, Kecamatan Ubud, Kabupaten Gianyar, Bali 80571, Indonesia",Ubud,Gianyar,-8.4964788,115.2730189,Stays,Premium Hotel,Countryside Hotel,4.6,1676,https://maps.google.com/?cid=10305910226429794685,,,"Rp1,936,000"
158,Four Seasons Resort Bali at Sayan - CHSE Certified,"Jl. Raya Sayan, Sayan, Kecamatan Ubud, Kabupaten Gianyar, Bali 80571, Indonesia",Ubud,Gianyar,-8.50032,115.2414815,Stays,Super Luxury Hotel,Countryside Resort,4.7,1445,https://maps.google.com/?cid=9202544246217537775,,,"Rp22,102,667"
159,POP! Hotel Denpasar - Bali,"Pop! Hotels, Dauh Puri Kauh, Kec. Denpasar Bar., Kota Denpasar, Bali, Indonesia",Denpasar Barat,Denpasar,-8.644811,115.2076103,Stays,Budget Hotel,City Hotel,4.1,1606,https://maps.google.com/?cid=414205118947398302,,,"Rp380,000"
160,Fairfield by Marriott Bali Legian,"Jl. Sri Rama No.8C, Legian, Kec. Kuta, Kabupaten Badung, Bali 80361, Indonesia",Kuta,Badung,-8.6996003,115.1716117,Stays,Premium Hotel,City Hotel,4.5,1530,https://maps.google.com/?cid=6847157844996982425,,,"Rp1,903,733"
161,"The Westin Resort & Spa Ubud, Bali","Jl. Lod Tunduh, Singakerta, Kecamatan Ubud, Kabupaten Gianyar, Bali 80571, Indonesia",Ubud,Gianyar,-8.5469364,115.2523558,Stays,Premium Hotel,Countryside Resort,4.7,1293,https://maps.google.com/?cid=16894405778642554595,,,"Rp4,356,000"
162,Kuta Seaview Boutique Hotel & Spa,"Jl. Pantai Kuta, Kuta, Kec. Kuta, Kabupaten Badung, Bali 80361, Indonesia",Kuta,Badung,-8.7192713,115.1693174,Stays,Premium Hotel,Beachside Hotel,4.4,1196,https://maps.google.com/?cid=7019649300827926391,,,"Rp3,330,000"
163,Aloft Bali Seminyak- CHSE Certified,"Jl. Batu Belig No.228, Seminyak, Kec. Kuta Utara, Kabupaten Badung, Bali 80361, Indonesia",Kuta Utara,Badung,-8.6728582,115.1473966,Stays,Premium Hotel,Beachside Hotel,4.7,546,https://maps.google.com/?cid=5505496922660833408,,,"Rp2,065,067"
164,Jumeirah Bali,"Kawasan Pecatu Indah Resort, Jl. Raya Uluwatu Street, Kuta Selatan, Kec. Kuta, Kabupaten Badung, Bali 80361, Indonesia",Kuta Selatan,Badung,-8.7982958,115.1198961,Stays,Luxury Hotel,Beachside Resort,4.9,1302,https://maps.google.com/?cid=14207329706937096744,,,"Rp15,477,028"
165,Hotel Zia Bali - Kuta,"Jl. ​Ciung Wanara 17, Br. Tegal, Kuta, Kec. Kuta, Kuta, Bali 80361, Indonesia",Kuta,Badung,-8.7235309,115.1729535,Stays,Standard Hotel,City Hotel,4.2,1500,https://maps.google.com/?cid=8702346089332917545,,,"Rp1,303,935"
166,Bali Elephant,"Jalan Elephant Safari Park Banjar Desa Taro Tegallalang, Taro, Kec. Tegallalang, Kabupaten Gianyar, Bali 80561, Indonesia",Tegallalang,Gianyar,-8.391231,115.283967,Stays,Standard Hotel,Villa,4.1,3458,https://maps.google.com/?cid=1610831969129008916,,,"Rp540,000"
167,Alam Kawi Ubud Resort & Spa,"Sanding, Tampaksiring, Gianyar, Bali 80552, Indonesia",Tampaksiring,Gianyar,-8.4569425,115.3045473,Stays,Standard Hotel,Countryside Villa,4.7,281,https://maps.google.com/?cid=13715657028365060888,,,"Rp900,000"
168,Grand Mirage Resort & Thalasso Bali,"Jl. Pratama No.74, Tanjung, Benoa, Kec. Kuta Sel., Kabupaten Badung, Bali 80363, Indonesia",Kuta Selatan,Badung,-8.7670783,115.2227403,Stays,Premium Hotel,Beachside Hotel,4.6,6489,https://maps.google.com/?cid=8180418952642857282,,,"Rp1,881,187"
169,"Sthala, a Tribute Portfolio Hotel, Ubud Bali","Jalan A.A Gede Rai, Jl. Raya Mawang Kelod, Lodtunduh, Ubud, Gianyar, Bali 80571, Indonesia",Ubud,Gianyar,-8.5724771,115.2596481,Stays,Premium Hotel,Countryside Hotel,4.7,2136,https://maps.google.com/?cid=6366726123384872048,,,"Rp2,097,333"
170,SereS Springs Resort & Spa,"F763+G3Q, Jl. Jukut Paku, Singakerta, Kecamatan Ubud, Kabupaten Gianyar, Bali 80571, Indonesia",Ubud,Gianyar,-8.5386957,115.2527326,Stays,Premium Hotel,Countryside Hotel,4.7,975,https://maps.google.com/?cid=7845185692002661147,,,"Rp2,766,060"
171,Sithala Villa Seminyak,"Gg. Sunyi No.1, Kerobokan Kelod, Kec. Kuta Utara, Kabupaten Badung, Bali 80361, Indonesia",Kuta Utara,Badung,-8.677273,115.154897,Stays,Premium Hotel,Villa,4.6,174,https://maps.google.com/?cid=6159538062364589666,,,"Rp4,320,000"
172,The Ritz-Carlton Bali Villas,"Jl. Raya Nusa Dua Selatan Jl. Nusa Dua, Lot III, Sawangan, Kec. Kuta Sel., Bali, 80361, Indonesia",Kuta Selatan,Badung,-8.8306709,115.2153312,Stays,Luxury Hotel,Beachside Resort,4.6,3791,https://maps.google.com/?cid=12897346423151704255,,,"Rp14,600,667"
173,ZURI Express Jimbaran,"Jl. Uluwatu II No.88X, Jimbaran, Kec. Kuta Sel., Kabupaten Badung, Bali 80361, Indonesia",Kuta Selatan,Badung,-8.7823974,115.1740347,Stays,Standard Hotel,City Hotel,4.6,890,https://maps.google.com/?cid=11335477764443666309,,,"Rp511,875"
174,The Grand Bali Nusa Dua,"Jalan Raya Nusa Dua Selatan, Jl. Nusa Dua No.8, Benoa, Kec. Kuta Sel., Kabupaten Badung, Bali 80363, Indonesia",Kuta Selatan,Badung,-8.808323,115.2232638,Stays,Premium Hotel,Beachside Resort,4.5,667,https://maps.google.com/?cid=2797892009000808825,,,"Rp1,567,500"
175,Padma Resort Legian,"Jl. Padma No.1, Legian, Kec. Kuta, Kabupaten Badung, Bali 80361, Indonesia",Kuta,Badung,-8.7049938,115.167197,Stays,Luxury Hotel,Beachside Resort,4.7,5125,https://maps.google.com/?cid=2061723941290475728,,,"Rp10,664,100"
176,Mars City Hotel,"Jl. Kerta Dalem, Sidakarya, Denpasar Selatan, Kota Denpasar, Bali 80224, Indonesia",Denpasar Selatan,Denpasar,-8.6985121,115.2341995,Stays,Standard Hotel,City Hotel,3.9,1702,https://maps.google.com/?cid=13155931925768847356,,,"Rp592,200"
177,Klapa Resort,"Jalan Raya Uluwatu Jl. New Kuta Beach No.I, Pecatu, Kec. Kuta Sel., Kabupaten Badung, Bali 80364, Indonesia",Kuta Selatan,Badung,-8.7998175,115.1196031,Stays,Premium Hotel,Beachside Resort,4.2,2195,https://maps.google.com/?cid=9055183428240956602,,,"Rp2,160,000"
178,Amaroossa Suite Bali,"Taman Mumbul, Jl. Taman Kebo Iwa Jalan Nusa Dua No.2, Benoa, Kec. Kuta Sel., Kabupaten Badung, Bali 80361, Indonesia",Kuta Selatan,Badung,-8.790119,115.2063654,Stays,Standard Hotel,City Hotel,4,1084,https://maps.google.com/?cid=17743963507509274814,,,"Rp826,500"
179,The Vasini Hotel,"Jl. WR Supratman No.288, Kesiman Kertalangu, Kec. Denpasar Tim., Kota Denpasar, Bali 80237, Indonesia",Denpasar Timur,Denpasar,-8.6397477,115.25336,Stays,Standard Hotel,City Hotel,4.2,1432,https://maps.google.com/?cid=16655727835913540238,,,"Rp585,000"
180,Puri Padma Hotel,"jl Raya Andong, G72F+945, Banjar Nagi, Petulu, Kecamatan Ubud, Kabupaten Gianyar, Bali 80571, Indonesia",Ubud,Gianyar,-8.4991174,115.2728573,Stays,Premium Hotel,Countryside Hotel,4.4,463,https://maps.google.com/?cid=18199581088422799265,,,"Rp1,890,000"
181,Karma Kandara,"Jl. Villa Kandara, Banjar Wijaya Kusuma, Ungasan, Kec. Kuta Sel., Kabupaten Badung, Bali 80362, Indonesia",Kuta Selatan,Badung,-8.8451021,115.1521449,Stays,High End Hotel,Beachside Resort,4.6,2773,https://maps.google.com/?cid=4545941435679612983,,,"Rp9,040,330"
182,Kutus Kutus Saba Beach Villa,"Jl. Pantai Saba, Saba, Kec. Blahbatuh, Kabupaten Gianyar, Bali 80581, Indonesia",Blahbatuh,Gianyar,-8.6150409,115.3166276,Stays,Premium Hotel,Beachside Resort,4.6,38,https://maps.google.com/?cid=7714577063168584961,,,"Rp3,781,819"
183,Royal Regantris Kuta,"Jl. Bakung Sari No.110, Kuta, Kec. Kuta, Kabupaten Badung, Bali 80361, Indonesia",Kuta,Badung,-8.7244821,115.1728906,Stays,Budget Hotel,Beachside Hotel,4.2,1795,https://maps.google.com/?cid=2215589983491396604,,,"Rp465,483"
184,The Jas Villas,"Depan Villa Arjuna, Jl. Laksmana Gg. Bugis, Seminyak, Kec. Kuta, Kabupaten Badung, Bali 80361, Indonesia",Kuta,Badung,-8.6867548,115.1604477,Stays,Premium Hotel,Boutique Villa,3.9,413,https://maps.google.com/?cid=7459468661824002689,,,"Rp4,095,000"
185,Watermark Hotel and Spa Bali,"Jl. Raya Uluwatu No.88, Kedonganan, Kec. Kuta, Kabupaten Badung, Bali 80361, Indonesia",Kuta,Badung,-8.7612117,115.1757584,Stays,Standard Hotel,City Hotel,4.4,1345,https://maps.google.com/?cid=15600317985828615280,,,"Rp1,099,156"
186,The Kana Kuta Hotel,"Jl. Setiabudi No.8, Kuta, Kec. Kuta, Kabupaten Badung, Bali 80361, Indonesia",Kuta,Badung,-8.7216323,115.1810545,Stays,Standard Hotel,City Hotel,4.5,1140,https://maps.google.com/?cid=13720656754240110315,,,"Rp1,284,904"
187,Ashoka Tree Resort at Tanggayuda,"Jl. Catur Muka II, Banjar Tanggayuda, Kedewatan, Kecamatan Ubud, Kabupaten Gianyar, Bali 80571, Indonesia",Ubud,Gianyar,-8.4621486,115.2484516,Stays,Standard Hotel,Countryside Resort,4,630,https://maps.google.com/?cid=18169485683481361919,,,"Rp1,260,000"
188,Solia Legian Bali,"Jl. Sriwijaya No.16, Legian, Kec. Kuta, Kabupaten Badung, Bali 80361, Indonesia",Kuta,Badung,-8.7083533,115.1730361,Stays,Standard Hotel,City Hotel,4.5,1857,https://maps.google.com/?cid=2694892333043244109,,,"Rp810,000"
189,Jumana Bali Ungasan Resort Managed by Hilton,"Banjar Kelod, Jl. Melasti, Ungasan, South Kuta, Badung, Bali 80364, Indonesia",Kuta Selatan,Badung,-8.8438661,115.1588242,Stays,Luxury Hotel,Beachside Resort,4.9,122,"https://maps.google.com/?q=Ungasan,+South+Kuta,+Badung+Regency,+Bali,+Indonesia&ftid=0x2dd25b3a734a0435:0x30f3a0e2a964fbfa",,,"Rp12,906,667"
190,Taksu Sanur Hotel,"Jl. Sudamala No.26, Sanur Kauh, Denpasar Selatan, Kota Denpasar, Bali 80228, Indonesia",Denpasar Selatan,Denpasar,-8.7058382,115.2559493,Stays,Premium Hotel,City Hotel,4.4,855,https://maps.google.com/?cid=17527228811854699547,,,"Rp1,600,200"
191,Bali Garden Beach Resort,"Jl. Kartika Plaza, Kuta, Kec. Kuta, Kabupaten Badung, Bali 80361, Indonesia",Kuta,Badung,-8.7275512,115.1695628,Stays,Premium Hotel,Beachside Resort,4.4,1588,https://maps.google.com/?cid=16625678964785019529,,,"Rp2,160,000"
192,J4 Hotels Legian,"Jl. Raya Legian No.74, Br Pengabetan, Kec. Kuta, Kabupaten Badung, Bali 80361, Indonesia",Kuta,Badung,-8.7180683,115.1746865,Stays,High End Hotel,City Hotel,4.4,2316,https://maps.google.com/?cid=7400314715449853069,,,"Rp6,966,000"
193,The Wangsa Hotel and Villas Benoa,"Tanjung Benoa - Nusa Dua, Jl. Pratama No.61B, Benoa, Kec. Kuta Sel., Kabupaten Badung, Bali 80363, Indonesia",Kuta Selatan,Badung,-8.78137,115.223402,Stays,Standard Hotel,Villa,4.2,302,https://maps.google.com/?cid=105995576267247317,,,"Rp807,600"
194,ibis Bali Kuta,"Jl. Raya Kuta No.77, Kuta, Kec. Kuta, Kabupaten Badung, Bali 80361, Indonesia",Kuta,Badung,-8.7337619,115.1774876,Stays,Standard Hotel,City Hotel,4.3,1960,https://maps.google.com/?cid=8751976848936057856,,,"Rp634,799"
195,Best Western Premier Agung Resort Ubud,"Jl. Sri Wedari No.99, Ubud, Kecamatan Ubud, Kabupaten Gianyar, Bali 80571, Indonesia",Ubud,Gianyar,-8.5001024,115.2669252,Stays,Standard Hotel,Countryside Hotel,4.6,1281,https://maps.google.com/?cid=8550921654422155318,,,"Rp1,314,000"
196,Kayangan Villa Ubud,"Kenderan Tegalalang, Kenderan, Kec. Tegallalang, Kabupaten Gianyar, Bali 80561, Indonesia",Tegallalang,Gianyar,-8.4603543,115.2832005,Stays,Standard Hotel,Countryside Villa,4.8,43,https://maps.google.com/?cid=11994680568542867531,,,"Rp1,372,750"
197,Villa Seminyak Estate & Spa By Astadala,"Jl. Nakula Gg. Baik-Baik, Seminyak, Kec. Kuta, Kabupaten Badung, Bali 80361, Indonesia",Kuta,Badung,-8.6953792,115.1713912,Stays,Standard Hotel,Villa,4.4,745,https://maps.google.com/?cid=3708786713411919211,,,"Rp1,368,000"
198,Ulu Segara Luxury Suites and Villas,"Jl. Raya Nusa Dua Selatan, Benoa, Kec. Kuta Sel., Kabupaten Badung, Bali 80363, Indonesia",Kuta Selatan,Badung,-8.8345483,115.2103461,Stays,Premium Hotel,Beachside Hotel,4.5,600,https://maps.google.com/?cid=4773560416243058973,,,"Rp2,195,389"
199,Bali Tropic Resort & Spa,"No.34 A, Jl. Pratama Nusa Dua, Benoa, Kec. Kuta Sel., Kabupaten Badung, Bali 80363, Indonesia",Kuta Selatan,Badung,-8.7860452,115.2254201,Stays,Premium Hotel,Beachside Resort,4.4,1469,https://maps.google.com/?cid=8550294845832310237,,,"Rp2,137,500"
200,Mercure Resort Sanur,"Jl. Mertasari, Sanur Kauh, Denpasar Selatan, Kota Denpasar, Bali 80228, Indonesia",Denpasar Selatan,Denpasar,-8.7093075,115.2540634,Stays,Standard Hotel,Beachside Resort,4.6,3635,https://maps.google.com/?cid=14332811696175618167,,,"Rp998,760"
201,Bali Relaxing Resort & Spa,"Jl. Pratama No.62, Benoa, Kec. Kuta Sel., Kabupaten Badung, Bali 80361, Indonesia",Kuta Selatan,Badung,-8.7778115,115.2240081,Stays,Standard Hotel,Beachside Resort,4.3,1144,https://maps.google.com/?cid=10969794474104846978,,,"Rp1,479,600"
202,Padmasari Resort,"Lovina Beach, Singaraja, Jl. Seririt- Singaraja, Temukus, Kec. Banjar, Kabupaten Buleleng, Bali 81151, Indonesia",Banjar,Buleleng,-8.166716,115.009025,Stays,Premium Hotel,Beachside Resort,4.4,684,https://maps.google.com/?cid=7077504405977781597,,,"Rp2,700,000"
203,Sanur Agung Hotel,"Jl. Bypass Ngurah Rai No.174, Sanur, Denpasar Selatan, Kota Denpasar, Bali, Indonesia",Denpasar Selatan,Denpasar,-8.6723895,115.2581926,Stays,Budget Hotel,City Hotel,3.7,542,https://maps.google.com/?cid=3731824765934935616,,,"Rp332,500"
204,Grandmas Plus Hotel - Legian,"Jl. Sriwijaya No.368, Legian, Kec. Kuta, Kabupaten Badung, Bali 80361, Indonesia",Kuta,Badung,-8.7085042,115.1720862,Stays,Premium Hotel,City Hotel,4.5,2735,https://maps.google.com/?cid=13936954828775187094,,,"Rp2,666,666"
205,Tijili Seminyak,"Jl. Drupadi No.9, Seminyak, Kec. Kuta, Kabupaten Badung, Bali 80361, Indonesia",Kuta,Badung,-8.690685,115.161643,Stays,Standard Hotel,City Hotel,4.4,1477,https://maps.google.com/?cid=17053289946676387888,,,"Rp1,409,902"
206,Best Western Resort Kuta,"Jl. Kubu Anyar Jl. Banjar Anyar No.118, Kuta, Kec. Kuta, Kabupaten Badung, Bali 80361, Indonesia",Kuta,Badung,-8.732038,115.171392,Stays,Standard Hotel,City Hotel,4.3,1816,https://maps.google.com/?cid=12717817964094052448,,,"Rp639,000"
207,Om Ham Retreat and Resort,"Tirta Tawar Road, Banjar Junjungan, Ubud, Kecamatan Ubud, Kabupaten Gianyar, Bali 80571, Indonesia",Ubud,Gianyar,-8.4676182,115.2716567,Stays,Standard Hotel,Countryside Villa,4.6,460,https://maps.google.com/?cid=2017430924667928989,,,"Rp990,000"
208,ION Bali Benoa Hotel,"Jl. Pratama No.93, Tj. Benoa, Kec. Kuta Sel., Kabupaten Badung, Bali 80361, Indonesia",Kuta Selatan,Badung,-8.766603,115.221037,Stays,Standard Hotel,City Hotel,4.1,484,https://maps.google.com/?cid=5483794421275535493,,,"Rp720,000"
209,Titik Dua,"Jl. Cok Rai Pudak No.48, Peliatan, Kecamatan Ubud, Kabupaten Gianyar, Bali 80571, Indonesia",Ubud,Gianyar,-8.5281244,115.2713911,Stays,Premium Hotel,Countryside Resort,4.7,514,https://maps.google.com/?cid=13315927403876876836,,,"Rp2,392,000"
210,Sujiwa Ubud Retreat Villa,"Jl. Subak Gunung Sari, Sumampan, Kemenuh, Kec. Sukawati, Kabupaten Gianyar, Bali 80582, Indonesia",Sukawati,Gianyar,-8.5470125,115.286377,Stays,Standard Hotel,Villa,4.7,98,https://maps.google.com/?cid=2010388135215501058,,,"Rp674,100"
211,Holiday Inn Express BARUNA BALI,"Jl. Wana Segara No.33A, Tuban, Bali, Kabupaten Badung, Bali 80361, Indonesia",Kuta,Badung,-8.7367077,115.1643116,Stays,Standard Hotel,Beachside Hotel,4.9,8161,https://maps.google.com/?cid=10476761437531786173,,,"Rp1,421,141"
212,New Sunari Lovina Beach Resort,"Jl. Raya Lovina-Singaraja Jl. Desa Kalibukbuk-Anturan, Anturan, Kec. Buleleng, Kabupaten Buleleng, Bali 81151, Indonesia",Buleleng,Buleleng,-8.154124,115.034535,Stays,Standard Hotel,Beachside Resort,4.2,719,https://maps.google.com/?cid=997714293743585299,,,"Rp702,000"
213,Kastara Resort,"Jl. Bangkiang Sidem, Keliki, Kecamatan Ubud, Kabupaten Gianyar, Bali 80571, Indonesia",Ubud,Gianyar,-8.4874359,115.2586996,Stays,Premium Hotel,Countryside Resort,4.7,734,https://maps.google.com/?cid=5767657102200146684,,,"Rp4,995,000"
214,"The Laguna, a Luxury Collection Resort & Spa, Nusa Dua, Bali","Kawasan Pariwisata, Jl. Nusa Dua No.2 Lot N, Benoa, Kec. Kuta Sel., Kabupaten Badung, Bali 80363, Indonesia",Kuta Selatan,Badung,-8.7973822,115.2307704,Stays,High End Hotel,Beachside Resort,4.7,3086,https://maps.google.com/?cid=15794436589414236034,,,"Rp5,646,667"
215,Paisa Seminyak Living,"Gg. Sunyi, Kerobokan Kelod, Kec. Kuta Utara, Kabupaten Badung, Bali, Indonesia",Kuta Utara,Badung,-8.6784746,115.1548734,Stays,Premium Hotel,Villa,3.8,9,https://maps.google.com/?cid=12239927862537720632,,,"Rp1,989,833"
216,Renaissance Bali Uluwatu Resort & Spa,"Jl. Pantai Balangan I No.1, Ungasan, Kec. Kuta Sel., Kabupaten Badung, Bali 80361, Indonesia",Kuta Selatan,Badung,-8.812979,115.144855,Stays,Premium Hotel,Countryside Resort,4.7,3019,https://maps.google.com/?cid=10263916995574070417,,,"Rp4,282,000"
217,Cara Cara Inn,"Jl. Khayangan Suci, Kuta, Kec. Kuta, Kabupaten Badung, Bali 80361, Indonesia",Kuta,Badung,-8.7227248,115.1732948,Stays,Budget Hotel,Villa,4.5,1515,https://maps.google.com/?cid=7560071864747162976,,,"Rp390,600"
218,Negara Hotel,"Jl. Ngurah Rai No.107, Pendem, Kec. Jembrana, Kabupaten Jembrana, Bali 82218, Indonesia",Jembrana,Jembrana,-8.360382,114.629015,Stays,Budget Hotel,City Hotel,4,880,https://maps.google.com/?cid=16010289840422667667,,,"Rp405,000"
219,bvilla+spa,"Jl. Beraban No.63, Kerobokan Kelod, Kec. Kuta Utara, Kabupaten Badung, Bali 80361, Indonesia",Kuta Utara,Badung,-8.6815923,115.1614316,Stays,Premium Hotel,Boutique Villa,4.6,132,https://maps.google.com/?cid=12924273263602343404,,,"Rp3,915,723"
220,Mara River Safari Lodge,"Bali Safari and Marine Park, Jl. Prof. Dr. Ida Bagus Mantra No.Km. 19, Serongga, Kec. Gianyar, Kabupaten Gianyar, Bali 80551, Indonesia",Gianyar,Gianyar,-8.5809528,115.3452424,Stays,High End Hotel,Countryside Resort,4.5,1325,https://maps.google.com/?cid=9073716620702104260,,,"Rp8,702,479"
221,Bali Nusa Dua Hotel,"Kawasan Pariwisata Nusa Dua Lot NW/1, Benoa, Kec. Kuta Sel., Kabupaten Badung, Bali 80363, Indonesia",Kuta Selatan,Badung,-8.7936033,115.226675,Stays,Premium Hotel,Beachside Resort,4.6,940,https://maps.google.com/?cid=9271333791530145402,,,"Rp1,890,000"
222,S18 Bali Villas,"Jl. Dewi Sri III No.18, Legian, Kec. Kuta, Kabupaten Badung, Bali 80361, Indonesia",Kuta,Badung,-8.7072094,115.1791661,Stays,Premium Hotel,Villa,4.5,261,https://maps.google.com/?cid=3630424249679951238,,,"Rp3,811,500"
223,Ayola Bali Jimbaran,"Jimbaran, South Kuta, Badung, Bali, Indonesia",Kuta Selatan,Badung,-8.7627905,115.1752116,Stays,Budget Hotel,City Hotel,4.1,495,https://maps.google.com/?cid=12694000983111146331,,,"Rp384,000"
224,The Lovina Bali,"Kalibukbuk, Jl. Mas Lovina, Anturan, Kec. Buleleng, Kabupaten Buleleng, Bali 81151, Indonesia",Buleleng,Buleleng,-8.153909,115.0300685,Stays,Premium Hotel,Beachside Hotel,4.6,1504,https://maps.google.com/?cid=10802227729769173886,,,"Rp3,366,250"
225,The Samaya Seminyak,"Seminyak Beach, Jl. Laksmana, Seminyak, Kuta, Badung, Bali 80361, Indonesia",Kuta,Badung,-8.6831666,115.1528888,Stays,Luxury Hotel,Beachside Resort,4.7,995,https://maps.google.com/?cid=15620240820077026495,,,"Rp11,979,000"
226,Bumi Linggah Villas Bali,"Jl. Pasekan Jl. Raya Banjar Tubuh, Batubulan, Kec. Sukawati, Kabupaten Gianyar, Bali 80582, Indonesia",Sukawati,Gianyar,-8.6170147,115.2631143,Stays,Premium Hotel,Villa,4.1,190,https://maps.google.com/?cid=12053907833964798387,,,"Rp1,845,375"
227,Hotel Puri Ayu,"Jl. Jend. Sudirman No.14 A, Dauh Puri Klod, Kec. Denpasar Bar., Kota Denpasar, Bali 80113, Indonesia",Denpasar Barat,Denpasar,-8.668168,115.217615,Stays,Standard Hotel,City Hotel,4.1,721,https://maps.google.com/?cid=5046746288364495435,,,"Rp725,000"
228,Plataran Ubud Hotel and Spa,"Jl. Hanoman, Pengosekan, Kecamatan Ubud, Kabupaten Gianyar, Bali 80571, Indonesia",Gianyar,Gianyar,-8.5210548,115.2637397,Stays,Premium Hotel,Countryside Hotel,4.7,1044,https://maps.google.com/?cid=14500484078380853405,,,"Rp2,286,900"
229,Maison Aurelia Sanur - by Préférence,"Jl. Danau Tamblingan No.140, Sanur, Denpasar Selatan, Kota Denpasar, Bali 80228, Indonesia",Denpasar Selatan,Denpasar,-8.695537,115.263549,Stays,Premium Hotel,City Hotel,4.7,709,https://maps.google.com/?cid=12492187884619472358,,,"Rp2,840,000"
230,Grand Barong Resort Bali,"Jl. Poppies II, Kuta, Kec. Kuta, Kabupaten Badung, Bali 80361, Indonesia",Kuta,Badung,-8.7174908,115.1723479,Stays,Standard Hotel,City Hotel,4.1,1028,https://maps.google.com/?cid=11425026983350831467,,,"Rp855,000"
231,Signature Seminyak Smart Hotel,"Jl. Mertanadi No.74, Kerobokan, Kec. Kuta Utara, Kabupaten Badung, Bali 80361, Indonesia",Kuta,Badung,-8.6767195,115.1673117,Stays,Standard Hotel,City Hotel,4.2,454,https://maps.google.com/?cid=9979754457869308240,,,"Rp558,000"
232,Prana Villa Jimbaran,"Komplek Mimpi Resort, Jl. Bukit Permai No.Kav 9, Jimbaran, Kec. Kuta Sel., Kabupaten Badung, Bali 80361, Indonesia",Kuta Selatan,Badung,-8.7840638,115.1574549,Stays,Standard Hotel,Beachside Hotel,4.5,128,https://maps.google.com/?cid=6380131208890979198,,,"Rp534,843"
233,The Crystal Luxury Bay Resort Nusa Dua - Bali,"Jl. Bypass Ngurah Rai Jl. Puri Mumbul Permai No.88, Benoa, Kec. Kuta Sel., Kabupaten Badung, Bali 80363, Indonesia",Kuta Selatan,Badung,-8.786976,115.2074085,Stays,Premium Hotel,Beachside Hotel,4.1,1384,https://maps.google.com/?cid=11146373352955005676,,,"Rp1,940,125"
234,The Sintesa Jimbaran Bali,"Jl. Kencana No.1, Jimbaran, Kec. Kuta Sel., Kabupaten Badung, Bali 80361, Indonesia",Kuta Selatan,Badung,-8.790739,115.158998,Stays,Standard Hotel,City Hotel,4.3,787,https://maps.google.com/?cid=11398126049663171941,,,"Rp764,716"
235,The Garcia Ubud Hotel and Resort,"Jl. Raya Silungan, Lodtunduh, Kecamatan Ubud, Kabupaten Gianyar, Bali 80571, Indonesia",Ubud,Gianyar,-8.561549,115.2679856,Stays,Premium Hotel,Countryside Hotel,4.7,517,https://maps.google.com/?cid=11234131705398835820,,,"Rp4,418,582"
236,Amnaya Resort Nusa Dua,"Jl. Pratama No.87, Tj. Benoa, Kec. Kuta Sel., Kabupaten Badung, Bali 80363, Indonesia",Kuta Selatan,Badung,-8.7704486,115.2220281,Stays,High End Hotel,Beachside Hotel,4.8,1315,https://maps.google.com/?cid=15776658350657251113,,,"Rp9,339,574"
237,SOL by Meliá Kuta Bali,"Sol By Melia Kuta Bali, Kuta, Kec. Kuta, Kabupaten Badung, Bali, Indonesia",Kuta,Badung,-8.7246997,115.1720735,Stays,Standard Hotel,City Hotel,4,1,https://maps.google.com/?q=Sol+By+Melia+Kuta+Bali&ftid=0x2dd246a4ba5465df:0x9fae36029acc4292,,,"Rp1,150,569"
238,18 Suite Villa Loft,"Jl. Kartika Plaza Gg. Pudak Sari, Kuta, Kec. Kuta, Kabupaten Badung, Bali 80361, Indonesia",Kuta,Badung,-8.7323488,115.1686748,Stays,Standard Hotel,City Hotel,4.4,498,https://maps.google.com/?cid=6497480204968745330,,,"Rp1,133,334"
239,d’primahotel Seminyak,"Jl. Petitenget No.168, Kerobokan Kelod, Kec. Kuta Utara, Kabupaten Badung, Bali 80361, Indonesia",Kuta Utara,Badung,-8.6822054,115.154309,Stays,Standard Hotel,City Hotel,4.1,222,https://maps.google.com/?cid=14928304724864385438,,,"Rp972,000"
240,Asoka City Bali,"Jl. Kubu Anyar No.40, Kuta, Kec. Kuta, Kabupaten Badung, Bali 80361, Indonesia",Kuta,Badung,-8.7327232,115.1702152,Stays,Budget Hotel,City Hotel,4,540,https://maps.google.com/?cid=2256450885113280670,,,"Rp390,000"
241,OYO 3261 Hotel Ratu,"Jl. Yos Sudarso No.4, Dauh Puri, Kec. Denpasar Bar., Kota Denpasar, Bali 80210, Indonesia",Denpasar Barat,Denpasar,-8.667615,115.215964,Stays,Budget Hotel,City Hotel,3.8,102,https://maps.google.com/?cid=5613588749169531949,,,"Rp165,471"
242,Amnaya Resort Kuta,"Jl. Kartika Plaza Gg. Puspa Ayu No.99, Kuta, Kec. Kuta, Kabupaten Badung, Bali 80361, Indonesia",Kuta,Badung,-8.7299278,115.1700662,Stays,Premium Hotel,City Hotel,4.7,3471,https://maps.google.com/?cid=2273504861836080000,,,"Rp2,871,489"
243,Prime Plaza Suites Sanur – Bali,"Prime Plaza Suites, Jl. Bypass Ngurah Rai, Semawang, Sanur, Denpasar Selatan, Kota Denpasar, Bali 80228, Indonesia",Denpasar Selatan,Denpasar,-8.6938113,115.2589633,Stays,Premium Hotel,City Hotel,4.5,792,https://maps.google.com/?q=Prime+Plaza+Suites&ftid=0x2dd241b63949b179:0xd7f5294519594d62,,,"Rp1,741,300"
244,Yan's House Hotel,"Jl. Kartika Plaza No.2, Kuta, Kec. Kuta, Kabupaten Badung, Bali 80361, Indonesia",Kuta,Badung,-8.7265322,115.1703832,Stays,Premium Hotel,City Hotel,4.5,827,https://maps.google.com/?cid=17130255350870295767,,,"Rp2,975,000"
245,Candi Beach Resort and Spa,"Jl. Mendira, Sengkidu, Kec. Manggis, Kabupaten Karangasem, Bali 80871, Indonesia",Manggis,Karangasem,-8.5033793,115.5523133,Stays,Premium Hotel,Beachside Resort,4.6,1802,https://maps.google.com/?cid=2898279195298712249,,,"Rp3,970,800"
246,Artotel Haniman Ubud,"Jl. Jatayu, Ubud, Kecamatan Ubud, Kabupaten Gianyar, Bali 80571, Indonesia",Ubud,Gianyar,-8.5164226,115.2653935,Stays,Premium Hotel,Countryside Hotel,4.6,390,https://maps.google.com/?cid=3544052104109853325,,,"Rp1,887,717"
247,Segara Village Hotel,"Jl. Segara Ayu, Sanur, Denpasar Selatan, Kota Denpasar, Bali 80030, Indonesia",Denpasar Selatan,Denpasar,-8.682798,115.2629147,Stays,Premium Hotel,Countryside Hotel,4.6,1857,https://maps.google.com/?cid=6760375934431652827,,,"Rp1,839,165"
248,Link Costel,"Jl. Pulau Sayang No.9B, Dauh Puri Kauh, Kec. Denpasar Bar., Kota Denpasar, Bali 80114, Indonesia",Denpasar Barat,Denpasar,-8.680954,115.2058637,Stays,Budget Hotel,City Hotel,4.1,138,https://maps.google.com/?cid=10172429763346074111,,,"Rp333,335"
249,Sari Villa Ubud,"Jl. Raya Sanggingan No.88, Sayan, Kecamatan Ubud, Kabupaten Gianyar, Bali 80571, Indonesia",Ubud,Gianyar,-8.4990357,115.2529077,Stays,Standard Hotel,Villa,4.3,610,https://maps.google.com/?cid=16316946612622007831,,,"Rp999,999"
250,Dee Mansion,"Jl. Pura Demak IV No.57, Tegal Harum, Kec. Denpasar Bar., Kota Denpasar, Bali 80119, Indonesia",Denpasar Barat,Denpasar,-8.6780142,115.1920671,Stays,Budget Hotel,City Hotel,4.2,472,https://maps.google.com/?cid=10872174687470977495,,,"Rp358,938"
251,Villa Ambara Bali,"Gg. sukun Perancak Street No.3, Tibubeneng, Canggu, Kabupaten Badung, Bali 80361, Indonesia",Kuta,Badung,-8.6562681,115.1406191,Stays,High End Hotel,Boutique Villa,4.7,19,https://maps.google.com/?cid=7936364354677114054,,,"Rp6,496,875"
252,Puri Saron Seminyak,"Jl. Camplung Tanduk, Seminyak, Kec. Kuta, Kabupaten Badung, Bali 80361, Indonesia",Kuta,Badung,-8.6944808,115.1622136,Stays,Premium Hotel,Villa,4.2,936,https://maps.google.com/?cid=741554765130234226,,,"Rp2,880,000"
253,KajaNe Yangloni at Ubud Bali,"Jl. Cok Rai Pudak No.10, Peliatan, Kecamatan Ubud, Kabupaten Gianyar, Bali 80571, Indonesia",Ubud,Gianyar,-8.5265342,115.2714684,Stays,Premium Hotel,Countryside Villa,4.5,318,https://maps.google.com/?cid=2452347951393928479,,,"Rp1,784,500"
254,The Leaf Jimbaran Luxury Villas,"Karang-Mas, Sejahtera Jl. Jepun No.81, Jimbaran, South Kuta, Badung, Bali 80361, Indonesia",Kuta,Badung,-8.7981193,115.1498791,Stays,Premium Hotel,Boutique Villa,4.3,713,https://maps.google.com/?cid=9254825273441606556,,,"Rp4,725,000"
255,Black Penny Villas Ubud,"Jl. Raya Kedewatan, Kedewatan, Kecamatan Ubud, Kabupaten Gianyar, Bali 80571, Indonesia",Ubud,Gianyar,-8.4835381,115.2456125,Stays,High End Hotel,Countryside Villa,4.8,1235,https://maps.google.com/?cid=6253693630229494074,,,"Rp7,978,667"
256,Komaneka at Monkey Forest,"Jl. Monkey Forest, Ubud, Kecamatan Ubud, Kabupaten Gianyar, Bali 80571, Indonesia",Ubud,Gianyar,-8.5125884,115.2613747,Stays,High End Hotel,Countryside Villa,4.8,321,https://maps.google.com/?cid=16265294541001092858,,,"Rp5,400,000"
257,Maya Ubud Resort & Spa,"Jl. Gn. Sari, Peliatan, Kecamatan Ubud, Kabupaten Gianyar, Bali 80571, Indonesia",Ubud,Gianyar,-8.512816,115.2778314,Stays,Luxury Hotel,Countryside Resort,4.8,2312,https://maps.google.com/?cid=1758533405063269421,,,"Rp15,622,149"
258,The Ayu Kintamani Villa at Toya Devasya,"Central Batur, Kintamani, Bangli, Bali, Indonesia",Kintamani,Bangli,-8.2509476,115.3993597,Stays,Premium Hotel,Mountainview Villa,4.1,68,https://maps.google.com/?cid=2820999527478786630,,,"Rp2,905,000"
259,Radisson Blu Bali Uluwatu,"Jl. Pemutih Jl. Labuansait, Pecatu, Kec. Kuta Sel., Kabupaten Badung, Bali 80361, Indonesia",Kuta Selatan,Badung,-8.8090744,115.1104224,Stays,Premium Hotel,Beachside Resort,4.6,970,https://maps.google.com/?cid=12647709250177851329,,,"Rp3,375,900"
260,The Sawah Villa,"Banjar Tengkulak, Jl. Ir. Sutami, Kemenuh, Kec. Sukawati, Kabupaten Gianyar, Bali 80582, Indonesia",Sukawati,Gianyar,-8.5481673,115.2829398,Stays,Standard Hotel,Countryside Villa,4.4,141,https://maps.google.com/?cid=5521251542857977626,,,"Rp588,000"
261,Hotel Mandari,"V3JF+Q98, Jl. Pantai Asri, Banyuasri, Kec. Buleleng, Kabupaten Buleleng, Bali 81119, Indonesia",Buleleng,Buleleng,-8.1180757,115.0734535,Stays,Budget Hotel,City Hotel,4.2,197,https://maps.google.com/?cid=3547918753197144129,,,"Rp380,000"
262,Senetan Villas and Spa Resort,"Banjar Panginyahan, Puhu, Kec. Payangan, Kabupaten Gianyar, Bali 80572, Indonesia",Payangan,Gianyar,-8.3727511,115.2647491,Stays,Premium Hotel,Countryside Villa,4.5,162,https://maps.google.com/?cid=6661524639075927626,,,"Rp2,430,000"
263,Legian Beach Hotel,"Jl. Melasti, Legian, Kec. Kuta, Kabupaten Badung, Bali 80361, Indonesia",Kuta,Badung,-8.7086097,115.1684776,Stays,Premium Hotel,Beachside Hotel,4.4,2422,https://maps.google.com/?cid=11646976453233795947,,,"Rp3,082,556"
264,Bali Golden Elephant,"55Q4+RM9, Jl. Utama, Ungasan, Kec. Kuta Sel., Kabupaten Badung, Bali 80361, Indonesia",Kuta Selatan,Badung,-8.8104535,115.1567447,Stays,Standard Hotel, Villa,3.6,151,https://maps.google.com/?cid=8660284131801163639,,,"Rp540,000"
265,BALQUISSE Heritage Hotel,"Jl. Raya Uluwatu No.18X, Jimbaran, Kec. Kuta Sel., Kabupaten Badung, Bali 80361, Indonesia",Kuta Selatan,Badung,-8.779461,115.1684985,Stays,Premium Hotel,Countryside Hotel,4.5,342,https://maps.google.com/?cid=9828925019182458502,,,"Rp1,620,000"
266,Adhi Jaya Hotel,"Jl. Kartika Plaza, Kuta, Kec. Kuta, Kabupaten Badung, Bali 80361, Indonesia",Kuta,Badung,-8.729576,115.168526,Stays,Premium Hotel,City Hotel,4.4,1099,https://maps.google.com/?cid=15170122984645666343,,,"Rp1,854,000"
267,ibis Bali Legian Street,"Jl. Raya Legian U No.456, Legian, Kec. Kuta, Kabupaten Badung, Bali 80361, Indonesia",Kuta,Badung,-8.6983177,115.1690554,Stays,Standard Hotel,City Hotel,4.2,1008,https://maps.google.com/?cid=17098105036740011885,,,"Rp696,960"
268,Kampi Villas by Premier Hospitality Asia,"Jl. Umalas II No.85, Kerobokan Kelod, Kec. Kuta Utara, Kabupaten Badung, Bali 80361, Indonesia",Kuta Utara,Badung,-8.8330376,115.201262,Stays,High End Hotel, Villa,4.4,59,https://maps.google.com/?cid=13524273910781589066,,,"Rp6,120,000"
269,Inna Sindhu Beach Hotel & Resort,"Jl. Pantai Sindhu No.14, Sanur, Denpasar Selatan, Kota Denpasar, Bali 80228, Indonesia",Denpasar Selatan,Denpasar,-8.6847617,115.2639374,Stays,Standard Hotel,Beachside Resort,4.3,1376,https://maps.google.com/?cid=2804110849947049297,,,"Rp1,197,000"
270,Bintang Kuta Hotel,"Jl. Kartika Plaza, Kuta, Kec. Kuta, Kabupaten Badung, Bali 80361, Indonesia",Kuta,Badung,-8.7338298,115.1670779,Stays,Premium Hotel,City Hotel,4.4,1891,https://maps.google.com/?cid=15632839043658306907,,,"Rp1,530,000"
271,Odika Lovina House and Villas,"Jalan Binaria, Anturan, Buleleng, Buleleng, Bali 81152, Indonesia",Buleleng,Buleleng,-8.155439,115.040714,Stays,Standard Hotel, Villa,4.4,733,https://maps.google.com/?cid=18120320703763296829,,,"Rp1,472,500"
272,Kampung Cenik,"Jl. Dewi Sri, Legian, Kec. Kuta, Kabupaten Badung, Bali 80361, Indonesia",Kuta,Badung,-8.7029746,115.1787828,Stays,Standard Hotel, Villa,4.4,258,https://maps.google.com/?cid=3145743299158312443,,,"Rp728,333"
273,Ananta Legian Hotel,"Jl. Werkudara No.539, Legian, Kec. Kuta, Kabupaten Badung, Bali 80361, Indonesia",Kuta,Badung,-8.6976321,115.1639628,Stays,Standard Hotel,City Hotel,3.9,330,https://maps.google.com/?cid=4800034515647978823,,,"Rp625,050"
274,Bali Mandira Beach Resort & Spa,"Jl. Padma No.2, Legian, Kec. Kuta, Kabupaten Badung, Bali 80361, Indonesia",Kuta,Badung,-8.7066107,115.1672859,Stays,High End Hotel,Beachside Resort,4.6,2096,https://maps.google.com/?cid=1538044540947656174,,,"Rp5,890,000"
275,Komaneka at Rasa Sayang,"Jl. Monkey Forest, Ubud, Kecamatan Ubud, Kabupaten Gianyar, Bali 80571, Indonesia",Ubud,Gianyar,-8.513312,115.260388,Stays,Premium Hotel,Countryside Resort,4.6,665,https://maps.google.com/?cid=13290117782325192653,,,"Rp2,700,000"
276,Hotel Grand Santhi,"Jl. Patih Jelantik No.1, Dauh Puri Klod, Kec. Denpasar Bar., Kota Denpasar, Bali 80113, Indonesia",Denpasar Barat,Denpasar,-8.6685511,115.2162119,Stays,Standard Hotel,City Hotel,4.2,1376,https://maps.google.com/?cid=14834402629116637198,,,"Rp900,000"
277,Grand Mirah Boutique Hotel,"Jl. Kaliasem No.1, Dangin Puri Kauh, Kec. Denpasar Utara, Kota Denpasar, Bali 80232, Indonesia",Denpasar Utara,Denpasar,-8.655401,115.218602,Stays,Standard Hotel,City Hotel,4.4,941,https://maps.google.com/?cid=15962427021236965362,,,"Rp607,500"
278,Ramayana Suites & Resort,"Jl. Bakung Sari, Kuta, Kec. Kuta, Kabupaten Badung, Bali 80361, Indonesia",Kuta,Badung,-8.7248254,115.1718611,Stays,Premium Hotel,Beachside Resort,4.3,1648,https://maps.google.com/?cid=8551494129976154803,,,"Rp1,710,000"
279,Keraton Jimbaran Resort,"Jl. Mrajapati, Jimbaran, Kec. Kuta Sel., Kabupaten Badung, Bali 80361, Indonesia",Kuta Selatan,Badung,-8.7717555,115.1707742,Stays,Standard Hotel,Beachside Resort,4.3,828,https://maps.google.com/?cid=16935000673725196146,,,"Rp780,079"
280,Inna Bali Heritage Hotel,"Banjar Lelangon, Jl. Veteran No.3, Dauh Puri Kaja, Kec. Denpasar Utara, Kota Denpasar, Bali 80232, Indonesia",Denpasar Utara,Denpasar,-8.6547398,115.2166078,Stays,Standard Hotel,City Hotel,4.3,1831,https://maps.google.com/?cid=3344367897917979880,,,"Rp693,000"
281,Alam Sembuwuk Resort Ubud,"Jl. Raya Pejeng Kawan, Pejeng Kaja, Kec. Tampaksiring, Kabupaten Gianyar, Bali 80551, Indonesia",Tampaksiring,Gianyar,-8.4764642,115.2873256,Stays,Standard Hotel,Countryside Resort,4,428,https://maps.google.com/?cid=615632477061998809,,,"Rp765,000"
282,The Rinaya Canggu by ecommerceloka,"Jalan Raya Canggu, Gang Leli, Tibubeneng, Kuta Utara, Tibubeneng, Badung, Kabupaten Badung, Bali 80361, Indonesia",Kuta Utara,Badung,-8.6434279,115.1553155,Stays,Premium Hotel, Villa,4,154,https://maps.google.com/?cid=7467783276651813185,,,"Rp1,544,013"
283,Hideaway Villas Bali Uluwatu by Kanaan Hospitality,"54GP+2JJ, Jl. Bangbang Bendot, Pecatu, Kec. Kuta Sel., Kabupaten Badung, Bali 80361, Indonesia",Kuta Selatan,Badung,-8.8249692,115.1364794,Stays,Premium Hotel, Villa,4.3,577,https://maps.google.com/?cid=6632821523862593953,,,"Rp3,438,000"
284,Melasti Kuta Bungalows and Spa,"Kuta, Badung, Bali, Indonesia",Kuta,Badung,-8.7264137,115.1700855,Stays,Standard Hotel,City Hotel,3.8,669,https://maps.google.com/?cid=13588249534683879264,,,"Rp850,000"
285,Serela Legian by KAGUM Hotels,"Jl. Lb. Bene No.168, Legian, Kec. Kuta, Kabupaten Badung, Bali 80361, Indonesia",Kuta,Badung,-8.709521,115.1699877,Stays,Budget Hotel,City Hotel,4.1,999,https://maps.google.com/?cid=1965037235295072507,,,"Rp454,500"
286,Villa Harmony Residence,"85G2+V72, Gg. Merpati, Seminyak, Kec. Kuta Utara, Kabupaten Badung, Bali 80361, Indonesia",Kuta Utara,Badung,-8.6728732,115.1506435,Stays,Premium Hotel, Villa,4.3,127,https://maps.google.com/?cid=2231444063939094109,,,"Rp2,940,000"
287,Bali Sandy Resort,"Jl. Pantai Kuta Jl. Poppies Lane II, Kuta, Kec. Kuta, Kabupaten Badung, Bali 80361, Indonesia",Kuta,Badung,-8.7179913,115.1712723,Stays,Standard Hotel,City Hotel,3.8,682,https://maps.google.com/?cid=102925602853707541,,,"Rp1,109,822"
288,Wirton Seminyak Boutique Hotel,"Jl. Bidadari I No. 38, Padangsambian Klod, Kec. Denpasar Bar., Kota Denpasar, Bali 80361, Indonesia",Denpasar Barat,Denpasar,-8.6830138,115.1743753,Stays,Budget Hotel,City Hotel,4.3,116,https://maps.google.com/?cid=13306495448245614417,,,"Rp468,000"
289,Adi Assri Beach Resort & Spa,"Jl. Seririt-Gilimanuk, Pemuteran, Kec. Gerokgak, Kabupaten Buleleng, Bali 81155, Indonesia",Gerokgak,Buleleng,-8.1448124,114.6600837,Stays,Standard Hotel,Beachside Resort,4.3,931,https://maps.google.com/?cid=13418635446810890005,,,"Rp799,077"
290,Goya Boutique Resort,"Jl. Bisma, Ubud, Kecamatan Ubud, Kabupaten Gianyar, Bali 80571, Indonesia",Ubud,Gianyar,-8.51202,115.2581302,Stays,High End Hotel,Countryside Resort,4.7,563,https://maps.google.com/?cid=4058011072951319584,,,"Rp6,850,994"
291,Mahagiri Resort Nusa Lembongan,"Banjar Kaja Desa Jungutbatu, Nusa Lembongan, Kec. Nusa Penida, Kabupaten Klungkung, Bali 80771, Indonesia",Banjar,Klungkung,-8.6636389,115.4518255,Stays,Standard Hotel,Beachside Resort,4.2,1533,https://maps.google.com/?cid=3369966912384311280,,,"Rp1,099,156"
292,Yucca Villas,"Gang Ruang II Jl. Dalem Gede, Pererenan, Kec. Mengwi, Kabupaten Badung, Bali 80351, Indonesia",Mengwi,Badung,-8.6398112,115.1323115,Stays,High End Hotel,Boutique Villa,4.9,44,https://maps.google.com/?cid=17130926840709208674,,,"Rp5,750,000"
293,Grand La Walon Hotel,"Jl. Benesari, Legian, Kec. Kuta, Kabupaten Badung, Bali 80361, Indonesia",Kuta,Badung,-8.7121755,115.171791,Stays,Standard Hotel,City Hotel,4.4,681,https://maps.google.com/?cid=3956500986514822105,,,"Rp630,000"
294,Beautiful Bali Villas,"Jl. Padma Tim. No.16, Legian, Kec. Kuta, Kabupaten Badung, Bali 80361, Indonesia",Kuta,Badung,-8.7048449,115.1729736,Stays,Premium Hotel,Villa,4.6,339,https://maps.google.com/?cid=12902868439481222506,,,"Rp3,120,300"
295,Bali Rani Hotel,"Jl. Kartika Plaza, Kuta, Kec. Kuta, Kabupaten Badung, Bali 80361, Indonesia",Kuta,Badung,-8.729989,115.168206,Stays,Premium Hotel,City Hotel,4.3,1314,https://maps.google.com/?cid=17814076377742355087,,,"Rp2,250,000"
296,Lasanti Villas and Spa Seminyak,"Jl. Nakula Gg. Baik-Baik No.89, Seminyak, Kec. Kuta, Kabupaten Badung, Bali 80361, Indonesia",Kuta,Badung,-8.6950435,115.172409,Stays,Premium Hotel,Villa,4.5,284,https://maps.google.com/?cid=12812148807813053642,,,"Rp2,936,000"
297,Kuta Central Park Hotel,"Jl. Patih Jelantik, Kuta, Badung, Kabupaten Badung, Bali 80361, Indonesia",Kuta,Badung,-8.7103142,115.1793693,Stays,Premium Hotel,City Hotel,4.2,4176,https://maps.google.com/?cid=2599231124543518081,,,"Rp1,794,000"
298,Ubud Hills Villa and Resort,"Banjar Dukuh, Ubud, Tegallalang, Gianyar, Bali 80561, Indonesia",Tegallalang,Gianyar,-8.4657406,115.2793788,Stays,Premium Hotel,Countryside Resort,4,63,https://maps.google.com/?cid=10933637569063912028,,,"Rp4,440,000"
299,Nusa Majesty,"Jl. Nusa Indah No.53, Kutampi Kaler, Kec. Nusa Penida, Kabupaten Klungkung, Bali 80771, Indonesia",Nusa Penida,Klungkung,-8.674109,115.5505722,Stays,Standard Hotel,Villa,4.2,102,https://maps.google.com/?cid=2542049320129017903,,,"Rp625,500"
301,Coco De Heaven,"Jl. Bypass Ngurah Rai No.17X, Kedonganan, Kec. Kuta Sel., Kabupaten Badung, Bali 80361, Indonesia",Kuta Selatan,Badung,-8.7586198,115.1793783,Stays,Budget Hotel,Villa,3.8,877,https://maps.google.com/?cid=6704186373661473778,,,"Rp450,000"
302,Adiwana Dara Ayu Villas,"JL. Raya Buahan, No. 88X, Majangan, Buahan Kaja, Kec. Payangan, Kabupaten Gianyar, Bali 80572, Indonesia",Payangan,Gianyar,-8.3614706,115.2437193,Stays,Premium Hotel,Countryside Resort,4.4,266,https://maps.google.com/?cid=5306863783040849378,,,"Rp3,820,431"
303,The Magani Hotel and Spa,"Jl. Melasti, Legian, Kelod, Kabupaten Badung, Bali 80361, Indonesia",Kuta,Badung,-8.7087193,115.1700734,Stays,Standard Hotel,City Hotel,4.5,881,https://maps.google.com/?cid=3623221103383772173,,,"Rp1,455,345"
304,Bayad Ubud Bali Villa,"Banjar Bayad, Melinggih Kelod, Kec. Payangan, Kabupaten Gianyar, Bali 80572, Indonesia",Payangan,Gianyar,-8.4482429,115.242868,Stays,Premium Hotel,Countryside Villa,4.2,167,https://maps.google.com/?cid=11751617700986509993,,,"Rp1,773,334"
305,Kubu GWK Resort,"Jl. Raya Uluwatu No.111, Jimbaran, Kec. Kuta Sel., Kabupaten Badung, Bali 80361, Indonesia",Kuta Selatan,Badung,-8.7962369,115.1635877,Stays,Premium Hotel,Villa,4.4,181,https://maps.google.com/?cid=11570169164696080864,,,"Rp1,755,000"
306,"The Lokha Ubud Resort, Villas & Spa","Br, Jl. Bangkiang Sidem Desa, Keliki, Kec. Tegallalang, Kabupaten Gianyar, Bali 80571, Indonesia",Tegallalang,Gianyar,-8.4923642,115.2587863,Stays,Premium Hotel,Countryside Resort,4.5,1118,https://maps.google.com/?cid=2284712730952401756,,,"Rp1,681,569"
307,Wina Holiday Villa Kuta Bali,"Jl. Pantai Kuta, Kuta, Kec. Kuta, Kabupaten Badung, Bali, Indonesia",Kuta,Badung,-8.7149747,115.1699592,Stays,Standard Hotel,Villa,4.3,1042,https://maps.google.com/?cid=5883833865493598653,,,"Rp917,563"
308,Gending Kedis Luxury Villas & Spa Estate,"Jl. Karang Mas No.100X, Jimbaran, Kec. Kuta Sel., Kabupaten Badung, Bali 80361, Indonesia",Kuta Selatan,Badung,-8.7888501,115.1554159,Stays,Luxury Hotel,Villa,4.5,279,https://maps.google.com/?cid=1207838459867805862,,,"Rp11,340,000"
309,Plagoo Holiday Hotel,"Jalan Dalem Tarukan No. 7 Taman Mumbul Nusa Dua, Benoa, Kec. Kuta Sel., Kabupaten Badung, Bali 80361, Indonesia",Kuta Selatan,Badung,-8.7972902,115.2060304,Stays,Standard Hotel,City Hotel,4.3,1495,https://maps.google.com/?cid=10512381379793563000,,,"Rp669,031"
310,Nesa Sanur,"Jl. Danau Tamblingan No.144, Sanur, Denpasar Selatan, Kota Denpasar, Bali, Indonesia",Denpasar Selatan,Denpasar,-8.6960571,115.2635212,Stays,Standard Hotel,City Hotel,4.3,222,https://maps.google.com/?cid=8550697704733965628,,,"Rp710,285"
311,Hotel Sorga Cottages Kuta,"Jl. Poppies 1, Gg. Sorga No.22, Kuta, Kec. Kuta, Kabupaten Badung, Bali 80361, Indonesia",Kuta,Badung,-8.7183747,115.1718543,Stays,Budget Hotel,City Hotel,4,275,https://maps.google.com/?cid=14834575389662758151,,,"Rp238,621"
312,Argya Santi Resort,"Jl. Jepun No.1, Jimbaran, Kec. Kuta Sel., Kabupaten Badung, Bali 80361, Indonesia",Kuta Selatan,Badung,-8.7953939,115.1469269,Stays,Standard Hotel,City Hotel,4.4,372,https://maps.google.com/?cid=13299761808059629792,,,"Rp660,000"
313,The Diana Suite Hotel,"Jl. Puri Gerenceng No.46B, Tuban, Kec. Kuta, Kabupaten Badung, Bali 80361, Indonesia",Kuta,Badung,-8.7400753,115.1715732,Stays,Standard Hotel,Villa,4.3,545,https://maps.google.com/?cid=16872836022247983972,,,"Rp710,775"
314,Rantun's Place,"56F8+QCV, Jl. Raya Nusa Dua Selatan Jl. Nusa Dua, Benoa, Kec. Kuta Sel., Kabupaten Badung, Bali 80361, Indonesia",Kuta Selatan,Badung,-8.8255528,115.2159523,Stays,Standard Hotel,Villa,4.2,202,https://maps.google.com/?cid=867933859721467254,,,"Rp836,104"
315,Tropico Jimbaran Bali,"Jl. Goa Gong No.123, Jimbaran, Kec. Kuta Sel., Kabupaten Badung, Bali 80361, Indonesia",Kuta,Badung,-8.8042154,115.1780319,Stays,Budget Hotel,City Hotel,4.4,310,https://maps.google.com/?cid=7461068609845361376,,,"Rp323,760"
316,Gana Hotel & Restaurant,"Jl. Raya Pengosekan Ubud, Ubud, Kecamatan Ubud, Kabupaten Gianyar, Bali 80571, Indonesia",Ubud,Gianyar,-8.5231191,115.263134,Stays,Standard Hotel,Countryside Hotel,4.5,179,https://maps.google.com/?cid=11815575614343833904,,,"Rp1,260,000"
317,Peppers Seminyak,"Jl. Pura Telaga Waja, Kerobokan Kelod, Kec. Kuta Utara, Kabupaten Badung, Bali, Indonesia",Kuta Utara,Badung,-8.6812696,115.1544226,Stays,Luxury Hotel,Boutique Villa,4.7,1134,https://maps.google.com/?cid=16096512304014346225,,,"Rp15,246,000"
318,Taman Harum Cottages,"Jl. Raya Mas, MAS, Kecamatan Ubud, Kabupaten Gianyar, Bali 80571, Indonesia",Ubud,Gianyar,-8.5497784,115.2727014,Stays,Premium Hotel,Countryside Villa,4.4,189,https://maps.google.com/?cid=16065715552693688250,,,"Rp1,759,500"
319,Mutiara Bali Boutique Resort Villas and Spa,"Jalan Braban No.77 Seminyak, Jl. Braban, Kerobokan Kelod, Kec. Kuta Utara, Kabupaten Badung, Bali 80361, Indonesia",Kuta Utara,Badung,-8.6822953,115.1590096,Stays,Premium Hotel,Boutique Villa,4.5,460,https://maps.google.com/?cid=12596561633618217503,,,"Rp1,811,350"
320,OYO 1200 Kencana Residence,"Jl. Danau Tamblingan IV No.5, Jimbaran, Kec. Kuta Sel., Kabupaten Badung, Bali 80361, Indonesia",Kuta Selatan,Badung,-8.7899647,115.18651,Stays,Budget Hotel,City Hotel,4.3,104,https://maps.google.com/?cid=7830597195614958848,,,"Rp257,643"
321,The Hill Ungasan Bukit Jimbaran,"Jl. Raya Uluwatu, Ungasan, Kec. Kuta Sel., Kabupaten Badung, Bali 80361, Indonesia",Kuta Selatan,Badung,-8.8126885,115.1578457,Stays,Standard Hotel,City Hotel,3.9,231,https://maps.google.com/?cid=11970896954869359406,,,"Rp630,000"
322,Karang Lila Bhuana Ubud,"G7F9+RC9, Jl. Suweta, Ubud, Kecamatan Ubud, Kabupaten Gianyar, Bali 80571, Indonesia",Ubud,Gianyar,-8.4755007,115.2685592,Stays,Standard Hotel,Countryside Villa,4.6,46,https://maps.google.com/?cid=13211594877272549521,,,"Rp682,521"
323,The Alantara Sanur,"Jl. Tirta Ening No.12, Sanur Kauh, Denpasar Selatan, Kota Denpasar, Bali, Indonesia",Denpasar Selatan,Denpasar,-8.7024469,115.2560959,Stays,Standard Hotel,City Hotel,4.6,850,https://maps.google.com/?cid=11295930074577623350,,,"Rp1,362,060"
324,Destiny Boutique Hotel,"Jl. Drupadi No.10, Seminyak, Kec. Kuta, Kabupaten Badung, Bali 80361, Indonesia",Kuta,Badung,-8.6897435,115.1620177,Stays,Standard Hotel,City Hotel,4,390,https://maps.google.com/?cid=13409485346232851270,,,"Rp1,449,459"
325,Kuwarasan A Pramana Experience,"Jalan Cinta, Tegallalang, Kec. Tegallalang, Kabupaten Gianyar, Bali 80561, Indonesia",Tegallalang,Gianyar,-8.4634266,115.271981,Stays,Premium Hotel,Countryside Resort,4.8,803,https://maps.google.com/?cid=2251665496797643921,,,"Rp2,439,000"
326,OYO 2184 Nan Berlian Inn,"Near Kuta Beach, Legian, Kec. Kuta, Kabupaten Badung, Bali, Indonesia",Kuta,Badung,-8.714154,115.1720106,Stays,Budget Hotel,City Hotel,2.8,63,https://maps.google.com/?cid=12045428602927915304,,,"Rp228,042"
327,Tanadewa Resort & Spa Ubud,"Jl. Padang Getas, Singakerta, Kecamatan Ubud, Kabupaten Gianyar, Bali 80571, Indonesia",Ubud,Gianyar,-8.5441172,115.2504635,Stays,Premium Hotel,Countryside Resort,4.8,918,https://maps.google.com/?cid=17982210020052815479,,,"Rp3,972,152"
328,Dinara Ubud,"Jl. Sri Wedari No.58, Ubud, Kecamatan Ubud, Kabupaten Gianyar, Bali 80571, Indonesia",Ubud,Gianyar,-8.4847732,115.2670046,Stays,Premium Hotel,Countryside Villa,4.9,274,https://maps.google.com/?cid=17426731782870662888,,,"Rp2,923,044"
329,Samuh Ocean Sunset Hotel by WizZeLa,"Banjar Anyar, Dusun Sebunibus 80771, Sakti, Nusa Penida, Klungkung, Bali, Indonesia",Banjar,Klungkung,-8.6848705,115.4820719,Stays,Standard Hotel,Beachside Hotel,3.8,32,https://maps.google.com/?cid=3325718448034669906,,,"Rp1,099,687"
330,Omatha Village,"Jl. Kembang Matahari I No.110b, Sumerta, Kec. Denpasar Tim., Kota Denpasar, Bali 80236, Indonesia",Nusa Penida,Klungkung,-8.6513094,115.2391008,Stays,Standard Hotel,Villa,4.4,214,https://maps.google.com/?cid=14864011264630734459,,,"Rp612,000"
331,The Awan Villas,"Jl. Batu Belig No.168, Seminyak, Kec. Kuta Utara, Kabupaten Badung, Bali 80361, Indonesia",Kuta Utara,Badung,-8.6729969,115.1530503,Stays,Premium Hotel,Villa,4.4,172,https://maps.google.com/?cid=3705050212968977650,,,"Rp4,652,458"
332,Alam Kulkul Boutique Resort,"Jl. Pantai Kuta, Legian, Kec. Kuta, Kabupaten Badung, Bali 80361, Indonesia",Kuta,Badung,-8.7107976,115.1672455,Stays,Premium Hotel,Boutique Villa,4.4,933,https://maps.google.com/?cid=13854234124350920633,,,"Rp1,783,710"
333,"Abian Srama Hotel, Massage And Spa","Jl. Bypass Ngurah Rai No.23, Sanur, Denpasar Selatan, Kota Denpasar, Bali 80228, Indonesia",Denpasar Selatan,Denpasar,-8.6848888,115.2593765,Stays,Budget Hotel,City Hotel,3.5,621,https://maps.google.com/?cid=8484693093052758770,,,"Rp173,333"
334,Astagina Resort Villa and Spa,"Astagina Resort Villa and Spa Bali, Gg. Bulan No.8, Legian, Kec. Kuta, Kabupaten Badung, Bali 80361, Indonesia",Kuta,Badung,-8.697961,115.1663204,Stays,Premium Hotel,Villa,4.4,1361,https://maps.google.com/?cid=7069567761319392302,,,"Rp3,402,936"
335,Pondok Anyar Hotel,"Jl. Kubu Anyar Gg. kingkong I No.1, Kuta, Kec. Kuta, Kabupaten Badung, Bali 80361, Indonesia",Kuta,Badung,-8.7313757,115.1707302,Stays,Standard Hotel,City Hotel,4.1,439,https://maps.google.com/?cid=9737921043337852447,,,"Rp517,500"
336,"FuramaXclusive Resort & Villas, Ubud","Jl. Raya Mambal Banjar Bindu, Mambal, Mekar Bhuwana, Kec. Abiansemal, Kabupaten Badung, Bali 80571, Indonesia",Ubud,Gianyar,-8.5433959,115.2313933,Stays,Standard Hotel,Countryside Villa,4.5,1169,https://maps.google.com/?cid=7103709964791072505,,,"Rp1,350,000"
337,Nata Ubud,"Jl. Suweta, Banjar Bentuyung, Kecamatan Ubud, Kabupaten Gianyar, Bali 80571, Indonesia",Ubud,Gianyar,-8.4841554,115.2653995,Stays,Standard Hotel,Countryside Villa,4.6,99,https://maps.google.com/?cid=9914087379522729703,,,"Rp1,440,000"
338,The Bandha Hotel & Suites,"Jl. Padma Utara Jl. Raya Legian, Legian, Kec. Kuta, Kabupaten Badung, Bali 80361, Indonesia",Kuta,Badung,-8.7020194,115.1655976,Stays,High End Hotel,City Hotel,4.6,905,https://maps.google.com/?cid=1391164046207488074,,,"Rp5,687,147"
339,Hotel Terrace at Kuta,"Jl. Benesari No.2, Kuta, Kec. Kuta, Kabupaten Badung, Bali 80361, Indonesia",Kuta,Badung,-8.712399,115.172231,Stays,Standard Hotel,City Hotel,4.3,834,https://maps.google.com/?cid=9756327234239300950,,,"Rp757,052"
340,Dedary Resort Ubud,"Banjar Pinjul No.8, Kenderan, Kec. Tegallalang, Kabupaten Gianyar, Bali 80571, Indonesia",Tegallalang,Gianyar,-8.4580507,115.2853009,Stays,Premium Hotel,Countryside Resort,4.8,695,https://maps.google.com/?cid=5281155773453145187,,,"Rp2,400,000"
341,Adelia Residence,"86W2+PC4, Gg. IV, Pemecutan, Kec. Denpasar Bar., Kota Denpasar, Bali 80111, Indonesia",Denpasar Barat,Denpasar,-8.6532432,115.2010898,Stays,Budget Hotel,City Hotel,2.8,78,https://maps.google.com/?cid=3048579864476069289,,,"Rp121,021"
342,La Berceuse Resort and Villa Nusa Dua by Taritiya Collection,"Jl. Desa Sawangan Jl. Nusa Dua, Benoa, Kec. Kuta Sel., Kabupaten Badung, Bali 80361, Indonesia",Kuta Selatan,Badung,-8.8182969,115.2142087,Stays,Premium Hotel,Villa,4.6,396,https://maps.google.com/?cid=14175581608340756001,,,"Rp2,153,844"
343,Kutus Kutus Mas Ubud Villa,"Banjar Kumbuh, Jl. Cempaka, MAS, Kecamatan Ubud, Kabupaten Gianyar, Bali 80571, Indonesia",Ubud,Gianyar,-8.535896,115.2664384,Stays,Standard Hotel,Countryside Villa,4.7,90,https://maps.google.com/?cid=15474648168671309544,,,"Rp1,098,000"
344,Aniniraka Resort And Spa,"Jl. Raya Tjampuhan, Sanggingan, Ubud, Sayan, Kec. Gianyar, Kabupaten Gianyar, Bali 80571, Indonesia",Gianyar,Gianyar,-8.4982642,115.2530118,Stays,Standard Hotel,Countryside Resort,4.2,266,https://maps.google.com/?cid=14083564077618361001,,,"Rp835,248"
345,Vico Hotel,"Jl. Pratama Gg. Bidadari No.81, Nusa dua, Kec. Kuta Sel., Kabupaten Badung, Bali 80361, Indonesia",Kuta Selatan,Badung,-8.7746288,115.2216152,Stays,Budget Hotel,Villa,3.7,178,https://maps.google.com/?cid=16644721161126413982,,,"Rp178,860"
346,Segara Sadhu Inn Kuta,"Jl. Poppies II Gg I No.3, Kuta, Kec. Kuta, Kabupaten Badung, Bali 80361, Indonesia",Kuta,Badung,-8.717959,115.1704557,Stays,Budget Hotel,Villa,3.5,193,https://maps.google.com/?cid=15128197225037058471,,,"Rp270,000"
347,SenS Hotel and Spa,"Jl. Sukma Kesuma No.1, Banjar Tebesaya, Kecamatan Ubud, Kabupaten Gianyar, Bali 80571, Indonesia",Ubud,Gianyar,-8.5096596,115.2688806,Stays,Premium Hotel,City Hotel,4.4,931,https://maps.google.com/?cid=2579282934551478891,,,"Rp1,913,151"
348,Atta Mesari Ubud,"Jl. Suweta, Ubud, Kecamatan Ubud, Kabupaten Gianyar, Bali 80571, Indonesia",Ubud,Gianyar,-8.4920601,115.2655167,Stays,Premium Hotel,Countryside Villa,4.6,428,https://maps.google.com/?cid=9015920287140369980,,,"Rp3,285,799"
349,Anja Jimbaran,"Jl. Yoga Perkanthi No.2, Jimbaran, Kec. Kuta Sel., Kabupaten Badung, Bali 80361, Indonesia",Kuta Selatan,Badung,-8.7723075,115.1699793,Stays,Premium Hotel,City Hotel,4.5,412,https://maps.google.com/?cid=847192335598231166,,,"Rp1,850,980"
350,The Pari Sudha,"Jl. Raya Petulu No.Br, Petulu, Kecamatan Ubud, Kabupaten Gianyar, Bali 80571, Indonesia",Ubud,Gianyar,-8.491333,115.2731825,Stays,Premium Hotel,Countryside Hotel,4.3,161,https://maps.google.com/?cid=2955730952749319968,,,"Rp1,554,798"
351,Natya Tanah Lot,"Jl. Kawasan Wisata Tanah Lot, Beraban, Kediri, Beraban, Kediri, Beraban, Kec. Kediri, Kabupaten Tabanan, Bali 82171, Indonesia",Kediri,Tabanan,-8.6186856,115.0882668,Stays,Premium Hotel,City Hotel,4.6,551,https://maps.google.com/?cid=6715371307069250783,,,"Rp1,826,532"
352,Tira Vilagna Suites & Spa,"Jalan Shanti, Padang Mun, Kec. Kintamani, Kabupaten Bangli, Bali 80652, Indonesia",Kintamani,Bangli,-8.2600874,115.3337451,Stays,High End Hotel,Countryside Villa,4.7,305,https://maps.google.com/?cid=2890353846294546550,,,"Rp7,830,000"
353,The Niche Bali,"Jl. Raya Legian No.190, Kuta, Kec. Kuta, Kabupaten Badung, Bali 80361, Indonesia",Kuta,Badung,-8.7161977,115.1743127,Stays,Budget Hotel,City Hotel,4.2,211,https://maps.google.com/?cid=10035227692498810574,,,"Rp440,000"
354,Samana Residence Denpasar,"Jalan Ciung Wanara II No. 29, Sumerta Kelod, Renon, Denpasar Selatan, Denpasar City, Bali 80226, Indonesia",Denpasar Selatan,Denpasar,-8.6747157,115.2367475,Stays,Budget Hotel,City Hotel,4.3,150,https://maps.google.com/?cid=6688258183978398715,,,"Rp390,000"
355,The Akasha Boutique Hotel,"Seminyak, Jl. Batu Belig No.999AB, Kerobokan Kelod, Kec. Kuta Utara, Kabupaten Badung, Bali 80361, Indonesia",Kuta Utara,Badung,-8.672983,115.146849,Stays,Premium Hotel,Boutique Villa,4.6,195,https://maps.google.com/?cid=235783146308786592,,,"Rp3,291,861"
356,Fourteen Roses Boutique Hotel Kuta,"Jl. Raya Legian No.153, Kuta, Kec. Kuta, Kabupaten Badung, Bali 80361, Indonesia",Kuta,Badung,-8.7138287,115.1732258,Stays,Standard Hotel,City Hotel,4.2,586,https://maps.google.com/?cid=7420356068533580198,,,"Rp810,000"
357,The Tiing Tejakula Villas,"Br. Tegal Sumaga, Les, Kec. Tejakula, Kabupaten Buleleng, Bali 81173, Indonesia",Tejakula,Buleleng,-8.1292773,115.361859,Stays,Premium Hotel,Beachside Resort,4.7,242,https://maps.google.com/?cid=4661777728655738856,,,"Rp1,951,200"
